place_id,name,address,latitude,longitude,rating,user_ratings_total,price_level,cuisine,types,phone,website,url,scrape_timestamp
ChIJ1eqRprCawjsRvDxMY9SEaJ0,Hotel Torna Vihar,"At Post, Velhe, Velhe Bk.",18.2916059,73.63697069999999,4.4,409.0,2.0,Indian,"restaurant, point_of_interest, food, establishment",+91 90218 13512,,,2025-10-18T11:18:33.795259
ChIJsy6WLX6bwjsRa_Qk0bY3HjY,Leena's Cloud Kitchen,At. Post - Velhe Bk. (Bajrapeth). Tal-Velhe,18.2979565,73.63605629999999,4.9,17.0,,Indian,"meal_takeaway, restaurant, point_of_interest, food, establishment",+91 70301 38441,,,2025-10-18T11:18:34.278443
ChIJ4R-5ZQCbwjsRb-2UDPK0Ado,Mengai snacks centre and swarup kitchen,"Torna RoadVelhe, Velhe Bk.",18.2920701,73.6370723,5.0,1.0,,Indian,"restaurant, point_of_interest, food, establishment",,,,2025-10-18T11:18:34.847330
ChIJifmreruawjsRlRiNAeBS3dA,Hotel Visava Veg Non Veg,"Velhe, Velhe Bk.",18.2971621,73.6395799,4.5,290.0,1.0,Indian,"restaurant, point_of_interest, food, establishment",+91 84120 54521,https://sites.google.com/view/hotelvisava/menu,,2025-10-18T11:18:35.305830
ChIJj2JZ_FGbwjsRGuQOPaitWgo,Killedar Wada,"8J3V+HFQ, SH65, Velhe Bk.",18.3039436,73.64373499999999,4.5,73.0,,Indian,"restaurant, food, point_of_interest, establishment",+91 98503 23701,,,2025-10-18T11:18:36.605677
ChIJTXyUBQCRwjsRoaHN7SKB0tQ,Hotel Sarang,"8M3J+V8F, Khariv",18.3046907,73.68078229999999,4.5,27.0,,Indian,"restaurant, point_of_interest, food, establishment",,,,2025-10-18T11:18:37.740305
ChIJFZMVti-OwjsRSli49K4Hxik,Heritage View Resort Rajgad,"Vajeghar Rd, Merawane",18.27679,73.70999239999999,3.9,372.0,,Indian,"lodging, restaurant, food, health, point_of_interest, establishment",,,,2025-10-18T11:18:39.134794
ChIJh86kbADtwjsRT9BTRQUTRJo,Ram Krishna Veg Restaurant & Banquet,"Mumbai - Satara Hwy, opp. Univarsal company, Shivare",18.3135221,73.8641804,4.8,2749.0,,Indian,"restaurant, food, point_of_interest, establishment",+91 97304 44407,https://krishnarestaurant.org/,,2025-10-18T11:18:43.908209
ChIJ55ajq3PtwjsRJZjCgn4Er48,Kailas Bhel Food Court,"NH 48, Varve Bk, Shivare",18.3080147,73.8685302,4.2,5962.0,2.0,Indian,"restaurant, food, point_of_interest, establishment",+91 74174 13900,http://www.kailasbhelpune.com/,,2025-10-18T11:18:44.227646
ChIJNfFxJu_twjsRg0OqWx5qvSQ,Kuubera Pure Veg,"Gat no. 91, Tal.Bhor, Varve Budruk, pune",18.3075537,73.8675332,4.7,580.0,,Indian,"restaurant, food, point_of_interest, establishment",,,,2025-10-18T11:18:44.508824
ChIJUx2STDbtwjsRSOyRK6PSeQ8,Kaveri village,Shivare,18.3144274,73.8632047,4.6,11.0,,Indian,"restaurant, food, point_of_interest, establishment",,,,2025-10-18T11:18:44.769908
ChIJAQAApCrtwjsRFE7xCEMyPag,Vithal Kamats,"136.Chairman Vasti,Gram Shivare, near Khed Shivapur Toll Plaza, Tehsil, Bhor",18.3136072,73.86608869999999,3.6,7295.0,2.0,Indian,"cafe, restaurant, food, store, point_of_interest, establishment",+91 90040 91639,http://www.kamatsindia.com/,,2025-10-18T11:18:45.056906
ChIJ-4xfHWjtwjsRcAz4_-KvD2k,Omkar Misal House,"NH 4, Pune - Satara Rd, opp. Universal Company, Shivare",18.3125985,73.8653918,3.8,1002.0,1.0,Indian,"restaurant, food, point_of_interest, establishment",+91 90114 25257,https://www.facebook.com/pg/Omkar-Misal-House-391990574681293/community/,,2025-10-18T11:18:45.337623
ChIJtwzGO8jtwjsRgNCrDR05SKE,"Jogeshwari Misal shivare, near toll plaza","Mumbai kolhapur highway, 1km from khed shivapur toll plaza, Shivare",18.3134592,73.8653609,3.7,828.0,,Indian,"restaurant, food, point_of_interest, establishment",,,,2025-10-18T11:18:45.647067
ChIJv_4bUhrzwjsRBq5aX9CPoLo,Jagtap mala,"Chintamani, Back side of Hotel, Pune - Satara Rd, Kelawade",18.2795174,73.87657329999999,4.2,239.0,2.0,Indian,"restaurant, food, point_of_interest, establishment",+91 85548 68308,,,2025-10-18T11:18:46.703618
ChIJx56i9zXzwjsR1_52DB6FELk,Reddys Tandoor- Khed Shivapur,"Toll Naka, Pune - Satara Rd, After, Khed Shivapur, Kelawade",18.2762907,73.8773543,3.9,551.0,,Indian,"restaurant, bar, food, point_of_interest, establishment",+91 83294 88900,,,2025-10-18T11:18:46.990929
ChIJv823dADzwjsRVq52m3xKYP0,Vaango,"7VMG+X8Q, Mumbai - Satara Hwy, Pune",18.2850718,73.8758768,,,,Indian,"restaurant, food, point_of_interest, establishment",,,,2025-10-18T11:18:47.271720
ChIJjwgk-pTzwjsRK-HZOW_i2xc,Hotel Shetkari हॉटेल शेतकरी,"NH 48, Pune - Satara Rd, rode, Kelawade",18.284522,73.87458029999999,3.6,163.0,,Indian,"restaurant, food, point_of_interest, establishment",+91 90963 89099,,,2025-10-18T11:18:47.547464
ChIJc0EaC8XzwjsRfCYxxpmp5q4,Hotel Jai Malhar,"Satara - Pune road, Varve , varvegaon , khedshivapur, taluka - bhor, Varve Bk",18.3006356,73.87256719999999,4.6,20.0,,Indian,"restaurant, food, point_of_interest, establishment",+91 77983 87575,,,2025-10-18T11:18:47.809367
ChIJj6O0AbLzwjsRm3JigrWlCGg,Happy Da Punjab,"Behind Bharat Petrol Pump, Pune, warve, Bangalore Highway, Khed Shivapur",18.2991449,73.87417429999999,4.7,15.0,,Indian,"restaurant, lodging, food, point_of_interest, establishment",,,,2025-10-18T11:18:48.074337
ChIJlxNmkPLywjsRq6E7o7EDCZg,Kalyan Dhaba,"Pune Banglore Highway Kelwade, Pune",18.290238,73.873339,3.8,214.0,,Indian,"restaurant, food, point_of_interest, establishment",,,,2025-10-18T11:18:48.358815
ChIJ3ze0bDzzwjsRZ0H9PbHoAcA,Sardarji Food,"Beside of HP petrol pump, GATE NO. 522 Village Kelawade NH-4, Bengaluru - Mumbai Hwy, Pune",18.2888751,73.8738619,4.2,10.0,,Indian,"restaurant, food, point_of_interest, establishment",+91 84460 55599,,,2025-10-18T11:18:48.645128
ChIJw8PoGJLzwjsR4JAip1IInpo,Shree Datta Snacks,"BPCL Company Pump Warve, NH 4, Pune - Satara Rd, near Hotel Nataraj, Pune",18.2997949,73.874494,4.0,122.0,,Indian,"restaurant, food, point_of_interest, establishment",,https://shreedattasnacksexpressway.com/,,2025-10-18T11:18:48.917848
ChIJzfjgjz3xwjsRbfbILbbVBC4,Purandar Vada Misal House,"Saswad Road, Narayanpur, Pur",18.3076235,73.9794398,4.6,100.0,,Indian,"restaurant, point_of_interest, food, establishment",+91 96734 22214,,,2025-10-18T11:18:52.023322
ChIJ2V7W3O7xwjsRz_S3a3Kgzh4,Hotel Purandar Pride,"Datta mandir, Narayanpur, Pur",18.3035334,73.97606,4.1,98.0,,Indian,"restaurant, point_of_interest, food, establishment",+91 96234 04041,,,2025-10-18T11:18:52.408665
ChIJk5B2V0vxwjsRX5yMqBhb5RY,hotel shet mala,"7XWG+JR6, Purandar Rd, Panvadi",18.2965358,73.97701359999999,3.8,82.0,,Indian,"restaurant, point_of_interest, food, establishment",,,,2025-10-18T11:18:52.749173
ChIJwZjPRLPxwjsRSy-CMCtJyz4,Hotel Patilwada,Panavadi Purandar,18.2839286,74.0223383,4.8,29.0,,Indian,"lodging, restaurant, point_of_interest, food, establishment",+91 88051 64646,,,2025-10-18T11:18:54.556550
ChIJK1gq85z7wjsRkVCgEeHchJg,Morya Pure Veg and Snacks centre,"AP St, Shivri, Pune",18.3065196,74.0942584,4.0,76.0,,Indian,"meal_takeaway, restaurant, food, point_of_interest, establishment",+91 75172 41541,,,2025-10-18T11:18:56.351053
ChIJe7ac10btwjsREajpSyPzHFY,Trupti Authentic Indian Veg,"A/P Shivare,next to, banglore higway, Khed-Shivapur Toll Plaza, Pune",18.319777,73.85879,3.6,3880.0,2.0,Indian,"restaurant, food, point_of_interest, establishment",+91 90961 42403,,,2025-10-18T11:19:04.387875
ChIJ-RHiKKTqwjsRPr5HBYXjhW4,Shiv Sunder Garden,"Near Wadia Hospital Shivapur, Satara Rd, Pune",18.3380055,73.8527424,4.2,187.0,,Indian,"restaurant, food, point_of_interest, establishment",+91 97679 09031,,,2025-10-18T11:19:04.675878
ChIJz1F1ogDtwjsR7f45V_deQmw,Shree Krishnaleela Pure Veg,"Pune - Satara Rd, Shivare, Pune",18.3147483,73.86296279999999,4.5,103.0,,Indian,"restaurant, food, point_of_interest, establishment",+91 87676 50934,,,2025-10-18T11:19:04.978943
ChIJRR5R7_jtwjsRpOOIQX5bktw,NH-4 BAR N RESTRO,"Khed Shivapur-Kondanpur Rd, Pune",18.335179,73.854807,4.6,856.0,2.0,Indian,"restaurant, food, point_of_interest, establishment",+91 72196 57777,,,2025-10-18T11:19:05.286784
ChIJv-ftuW_twjsRh85S1D-56eY,Joshi Wadewale - Khed Shivapur,"S No 931, Near Khed Shivapur, Pune-Banglore, Highway, Pune",18.3375589,73.8534581,3.3,876.0,2.0,Indian,"meal_takeaway, store, restaurant, food, point_of_interest, establishment",+91 97672 21010,http://www.joshiwadewale.co.in/,,2025-10-18T11:19:05.597492
ChIJY-H2QDjtwjsRfAOgV7_VDg0,Hotel Maratha Gaoran,"8VF4+H4J, Pune",18.3239308,73.85528930000001,4.1,46.0,,Indian,"restaurant, food, point_of_interest, establishment",,,,2025-10-18T11:19:05.898197
ChIJT9gsFlXtwjsRm1FZ-d_Z7N4,Joshi Wadewale - Khed Shivapur Toll Plaza,"SR No.780 Khed Shivapur, near Toll Plaza, Pune",18.3375089,73.8534681,3.1,588.0,,Indian,"meal_takeaway, store, restaurant, food, point_of_interest, establishment",,http://www.joshiwadewale.co.in/,,2025-10-18T11:19:06.174350
ChIJpdgu3x_twjsRCeV-fsMKync,Sudama Bhel & South Indian Corner,"Sudama Bhel and South Indian Corner, near Khed-Shivapur Toll Plaza, Khed Shivapur",18.3327498,73.8522835,5.0,6.0,,Indian,"restaurant, food, point_of_interest, establishment",,,,2025-10-18T11:19:06.460485
ChIJvfBeab3vwjsRgzk_YKuJrIo,INDIAN SPICE HOTEL,"82H6+953, Diwale-Narayanpur Rd, Supe Kh.",18.3283877,74.01041649999999,4.3,66.0,,Indian,"restaurant, food, point_of_interest, establishment",,,,2025-10-18T11:19:10.753132
ChIJ9eTCyrblwjsR3YavhByIiEg,GAVKARI,"Shop no 01, Hadapsar - Saswad - Jejuri Rd, near Veer Phata, Kumbharwada, Saswad",18.338477,74.0356321,4.2,818.0,2.0,Indian,"restaurant, food, point_of_interest, establishment",+91 96969 63618,,,2025-10-18T11:19:12.068448
ChIJy7sIZyblwjsRySg-iNCur-o,Grand Malhar Family Restaurant,"Jejuri, Road, Saswad",18.3368188,74.03602819999999,4.0,659.0,,Indian,"restaurant, food, point_of_interest, establishment",+91 95450 20201,,,2025-10-18T11:19:12.388660
ChIJhcqyMPXvwjsRA0C_tQRMcwM,Karha's Swad Restaurant,"Near saswad court, On saswad narayanpur road, Pune",18.3366206,74.0281023,4.2,1236.0,2.0,Indian,"restaurant, food, point_of_interest, establishment",,,,2025-10-18T11:19:12.685920
ChIJa65Ne5_lwjsR7Q7VN2beXp8,Kulswamini Special Bhigwan Machhi,"82QP+G79, near Borkar nursery, Saswad",18.3388038,74.0356907,4.0,247.0,,Indian,"restaurant, food, point_of_interest, establishment",+91 98505 58671,,,2025-10-18T11:19:13.002761
ChIJsahxzOXlwjsRDBg6qMKDXss,Hotel Dhangarwada Family Garden Saswad,"Veer phata, Hadapsar - Saswad - Jejuri Rd, Saswad",18.3374566,74.0361089,4.5,36.0,,Indian,"restaurant, food, point_of_interest, establishment",+91 91129 28122,,,2025-10-18T11:19:13.311883
ChIJ38PmpSPvwjsRF-IVIj8wG3Q,Mahabarachi Misal,"Shop No, 1, Hadapsar - Saswad - Jejuri Rd, Khalad",18.3297885,74.059534,4.3,381.0,,Indian,"restaurant, food, point_of_interest, establishment",,,,2025-10-18T11:19:14.526540
ChIJM1xrQgDlwjsROPA4BjJ44sM,Hotel Sai malhar family garden restaurant,"83J3+XRF, Hadapsar - Saswad - Jejuri Rd, Hadapsar, Gotemal, Saswad",18.332603,74.05455320000002,3.7,19.0,,Indian,"restaurant, food, point_of_interest, establishment",+91 78551 11185,,,2025-10-18T11:19:14.839125
ChIJ7_5nfwDlwjsRoUzNCIEnjA4,Hotel shree krushna pure veg,"Jejuri - Morgaon - Baramati Rd, near akshay industries, Jejuri, Morgaon",18.331609,74.0559186,4.6,100.0,,Indian,"restaurant, food, point_of_interest, establishment",,,,2025-10-18T11:19:15.143867
ChIJeZZ6bUDlwjsR7Aj4KoMEgcw,SWAMI Pure Veg,"raskar mla, Hadapsar - Saswad - Jejuri Rd, Khalad",18.3187745,74.0748217,3.6,690.0,,Indian,"lodging, restaurant, food, point_of_interest, establishment",+91 93560 26757,,,2025-10-18T11:19:16.361180
ChIJhS00H-mTwjsRtBRTV60JwIM,Sinhagad Dhaba,"9Q85+62X, Sinhagad Ghat Rd, Thoptewadi",18.3656107,73.757594,4.1,95.0,2.0,Indian,"restaurant, food, point_of_interest, establishment",+91 80076 20061,,,2025-10-18T11:19:22.074850
ChIJhXF8Za6TwjsRwyGVkuCcSlA,Shivganga Farms | THE BEST RESTAURANT IN PUNE,"Kondhanpur - Kalyan Rd, Pune",18.3459307,73.78521060000001,4.8,18.0,,Indian,"campground, bar, lodging, park, restaurant, point_of_interest, food, establishment",+91 82085 61911,,,2025-10-18T11:19:23.124223
ChIJ-9TQpaGTwjsRY3uNX2BQY1E,Sihagad Darbar Hotel,"At Awasarewadi Post Kondhanpur, Tal, Haveli, Dist, Avasare Wadi, Ghera Sinhagad",18.363829,73.7813051,4.7,7.0,,Indian,"restaurant, point_of_interest, food, establishment",+91 88888 44324,,,2025-10-18T11:19:23.394534
ChIJhfd6XQCTwjsRnpTdMpjFv_w,Hotel Atharv,"9R26+797, Arvi, Awasare Nagar",18.3506474,73.81086429999999,5.0,1.0,,Indian,"restaurant, point_of_interest, food, establishment",,,,2025-10-18T11:19:23.672220
ChIJdYGoH5iTwjsRnbfuyJjVoCw,Sayali Dhaba Akka,"9Q7M+C82, Pune",18.3635214,73.7833334,4.1,26.0,,Indian,"restaurant, point_of_interest, food, establishment",,,,2025-10-18T11:19:23.970811
ChIJ96zXXCKTwjsRJBweAmHCErM,Hotel Sinhgad Palace Best Veg Non veg Thali Family Restaurant,"At-Post-Arvi,Tal-Bhor, Dist, Ranje",18.3503304,73.82004420000001,4.2,391.0,,Indian,"restaurant, food, point_of_interest, establishment",+91 97641 27259,https://kuula.co/share/collection/7cYMn?logo=1&info=1&fs=1&vr=0&sd=1&thumbs=1,,2025-10-18T11:19:25.277861
ChIJeaSiWKTtwjsRKStYWtkg-yw,"Hotel Chul Mutton - Sagar Takawale Group of Hotels, Pune - Satara Road, Near Kailas Bhel, Khed Shivapur, Pune","besides Kailas Express Inn, Opposite Konde Petrol Pump Khed Shivapur, Pune - Satara Rd, Pune",18.3555942,73.8524999,4.6,8676.0,,Indian,"restaurant, food, point_of_interest, establishment",+91 86868 85555,,,2025-10-18T11:19:26.617168
ChIJ51HDm63twjsRNmZeDalRS5k,Bhiwandi Darbar,"8VV3+83, Khed Shivapur, Ramnagar",18.3433125,73.8526875,3.6,1077.0,2.0,Indian,"restaurant, food, point_of_interest, establishment",+91 72788 23823,,,2025-10-18T11:19:26.952183
ChIJPdXcrdfswjsRPQwEQvKWubw,Jai Bhavani Biryani House,"8VW2+XCQ, National Highway 4, Ramnagar",18.3473262,73.8510498,4.2,3400.0,2.0,Indian,"restaurant, food, point_of_interest, establishment",+91 98222 43169,,,2025-10-18T11:19:27.275765
ChIJJ_pKOADtwjsRqL7iraUDBRM,Ayodhya Pure Veg Family Restaurant,"Khed Shivapur Bag, Pune - Satara Rd, opposite Shriram Petrolium, Velu, Pune",18.3581793,73.852964,4.4,344.0,,Indian,"restaurant, lodging, food, point_of_interest, establishment",+91 93595 05799,http://www.ayodhyarestaurant.in/,,2025-10-18T11:19:27.589829
ChIJtwtzbxntwjsR_VJHPwmgJ7c,HOTEL SHETKARI WADA,"At post velu, Taluka Bhor, zhila, pune",18.3667539,73.85571770000001,3.9,934.0,2.0,Indian,"restaurant, food, point_of_interest, establishment",+91 77440 63030,,,2025-10-18T11:19:27.894903
ChIJ4UD_IrvqwjsRcwajDeZxfo0,Hotel Jagdamba,Pune Banglore Highway KhedShivapur,18.3450314,73.85134590000001,4.2,38940.0,2.0,Indian,"restaurant, food, point_of_interest, establishment",+91 97623 12436,,,2025-10-18T11:19:28.168635
ChIJYSZBKDLtwjsRyf9MP7s7KzQ,Royal Biryani Khedshivapur,"9V32+MXQ, Ramnagar",18.3542856,73.8525405,4.9,27.0,,Indian,"restaurant, food, point_of_interest, establishment",+91 88560 41521,,,2025-10-18T11:19:28.453923
ChIJY8h7OdDswjsRQ5724W0ftnU,Kailas Bhel,"Taluka Haveli, Pune-Satara Road, Opp. HP Petrol Pump Konde, Khed-Shivapur (Baug",18.3550205,73.85234299999999,4.1,14643.0,2.0,Indian,"restaurant, food, point_of_interest, establishment",+91 97300 88217,,,2025-10-18T11:19:28.730843
ChIJ5w-BdyjtwjsRbSaE8raHPq4,Hotel Kandil,"Kasurdi fata,khed shivapur 8VV3+79Q Satara road , Mumbai, beglore highway, Pune",18.3432216,73.8534749,4.2,911.0,2.0,Indian,"restaurant, food, point_of_interest, establishment",+91 90110 85766,,,2025-10-18T11:19:29.169978
ChIJWYWwy9DswjsRL9v2f2IpDXg,Hotel New Vilas,"9V22+CQQ, Khedshivapur, Pune",18.3510814,73.8519752,3.9,1149.0,2.0,Indian,"restaurant, food, point_of_interest, establishment",+91 96730 89807,,,2025-10-18T11:19:29.471635
ChIJe5IY0tDswjsRfmXdiWi2F24,Palange Biryani,"Pune - Bengaluru Hwy, Ramnagar",18.3491199,73.8513358,3.8,2306.0,2.0,Indian,"restaurant, food, point_of_interest, establishment",+91 98506 15155,,,2025-10-18T11:19:29.882192
ChIJa8D_jRPtwjsR-8vmpN8FSfI,Surve's Pure Non-Veg,"NH4, Khed Shivapur, Ramnagar",18.3564758,73.8535137,3.5,1245.0,2.0,Indian,"restaurant, food, point_of_interest, establishment",,https://survesrestaurant.com/,,2025-10-18T11:19:30.202155
ChIJU4Mgy9DswjsRu5yn2O_h_1s,Hotel Shree Ganesh Prasad,"Pune Banglore Highway Pashan Exit, Baner, Khed Shivapur, Ramnagar",18.3537943,73.8530588,4.1,136.0,,Indian,"restaurant, food, point_of_interest, establishment",,,,2025-10-18T11:19:30.612833
ChIJNelOSNjtwjsRweeuqnVjq2Q,Gholap biryani's house,Ramnagar,18.3499828,73.8516854,4.3,49.0,,Indian,"restaurant, food, point_of_interest, establishment",,,,2025-10-18T11:19:30.919849
ChIJ0UZJP9fswjsR7bkdz3tgyh0,Hotel Jai Bhawani Mutton Bhakri,"Pune Banglore Highway, KhedShivapur, Khed, Pune - Satara Rd, At Post, Khed Shivapur, Pune",18.3538932,73.8531959,4.0,3695.0,,Indian,"lodging, restaurant, food, point_of_interest, establishment",+91 98222 43169,,,2025-10-18T11:19:31.230312
ChIJhYTNfcXswjsRN6RP4sfd9wo,"Sai Chhaya Misal House, Velu/NH4 Branch",Pune,18.3617368,73.85386749999999,3.7,435.0,2.0,Indian,"restaurant, food, point_of_interest, establishment",+91 98505 15163,https://www.facebook.com/hotelsaichaya/,,2025-10-18T11:19:31.530042
ChIJE0Q1ra_twjsRtY9HN0Aqgzw,Swaad Family Restaurant Veg Non veg,"Khed Shivapur Baug, Pune Bangalore Highway, Khed Shivapur Ramnagar., Pune",18.3519096,73.85275680000001,3.3,317.0,,Indian,"restaurant, food, point_of_interest, establishment",+91 87888 79333,,,2025-10-18T11:19:31.910841
ChIJFeAFFIXtwjsR8j0uZeUYqhQ,Hotel Gavgada,"8VVX+6VH, Khed Shivapur-Sasvad Link Rd, Ramnagar, Warvadi",18.3431555,73.8997366,4.5,23.0,,Indian,"restaurant, food, point_of_interest, establishment",,,,2025-10-18T11:19:33.672491
ChIJ56n_WADvwjsRftksD0x-t-w,Hotel Aswad Veg Non Veg,"Road, Saswad - Bopdev - Pune Rd, Pune",18.3527173,74.0106277,4.4,41.0,,Indian,"restaurant, food, point_of_interest, establishment",+91 97646 06666,,,2025-10-18T11:19:36.291259
ChIJh6WDe4_lwjsRlmv_UfKWeiE,Rajlakshmi Biryani,"PMT Building, Bus Stop, Burud Ali Rd, near main, Kumbharwada, Saswad",18.3452702,74.0309516,5.0,233.0,,Indian,"restaurant, point_of_interest, food, establishment",,,,2025-10-18T11:19:37.667911
ChIJi5EuNIjvwjsRYJUQhIkLWfo,Mohini Pure Veg,"Jayprakash Narayan Chowk, Saswad - Bopdev - Pune Rd, Sidhheshwar Colony, Saswad",18.3462767,74.0288008,4.1,1848.0,2.0,Indian,"restaurant, point_of_interest, food, establishment",,https://play.google.com/store/apps/details?id=com.carrotfooddeliv.carrotfood,,2025-10-18T11:19:37.975904
ChIJWVhrtD7lwjsR0a9--Hq6kHk,Naadbramha idli Saswad,"Shop No.6, Saraswati corner, Jejuri naka, Ashok Nagar, Shri Swami Samarth Society, Saswad, pune",18.3441019,74.0337073,5.0,19.0,,Indian,"restaurant, point_of_interest, food, establishment",+91 96732 31116,http://www.naadbramha.com/,,2025-10-18T11:19:38.282506
ChIJN6yClYDvwjsR97EUpDVwjbc,Swagat Family Restaurant,"924H+FG4, Opp. Ganesh Mangal Karyaly, Tal-Purandhar, Saswad-Hadpsar Road,, Pune",18.3561272,74.0288451,4.1,502.0,2.0,Indian,"restaurant, point_of_interest, food, establishment",+91 93252 52240,https://play.google.com/store/apps/details?id=com.carrotfooddeliv.carrotfood,,2025-10-18T11:19:38.590748
ChIJJQT0v4fvwjsRVSQX49Tc9YI,Asmita Wadewale,"Hadapsar - Saswad - Jejuri Rd, Swarna Nagari, Saswad",18.350269,74.0284726,4.2,2470.0,,Indian,"restaurant, point_of_interest, food, establishment",,,,2025-10-18T11:19:38.999943
ChIJc6i0C4LlwjsRcx5A9dO3WN0,Dum-Daar Bawarchi Biryani,"Shri Swami Samarth Society, Saswad",18.3455447,74.0360262,4.6,22.0,,Indian,"restaurant, point_of_interest, food, establishment",+91 93597 59892,,,2025-10-18T11:19:39.265684
ChIJMxgww4nvwjsRvv8Ds6EX-3g,Samadhan Vada Vikri Kendra,"Main Rd, Sidhheshwar Colony, Saswad",18.3450125,74.0292886,4.3,496.0,,Indian,"restaurant, point_of_interest, food, establishment",+91 95610 64983,,,2025-10-18T11:19:39.560108
ChIJ-_J9RIDvwjsR0PvbWUD1HAs,Hotel Rasoi,"Sopan Nagar, Saswad",18.3583082,74.0281187,3.9,263.0,2.0,Indian,"restaurant, point_of_interest, food, establishment",,,,2025-10-18T11:19:39.826701
ChIJ_562govlwjsRaC13wcelf4g,Kulswamini hotel saswad,"Saswad Jejuri road Near Mane hospital sasawad Near Jejuri Jakatnaka, Saswad",18.3441148,74.0326627,4.2,150.0,,Indian,"restaurant, point_of_interest, food, establishment",,,,2025-10-18T11:19:40.089164
ChIJdaSSI3_vwjsRrDZhe3K6v-k,Hotel shiv shambho garden dhaba,"Hadapsar - Saswad - Jejuri Rd, rodChandan Tekadi, Sopan Nagar, Saswad",18.361847,74.02571,4.3,31.0,,Indian,"restaurant, point_of_interest, food, establishment",+91 96138 08807,,,2025-10-18T11:19:40.380947
ChIJ9zduUIblwjsRlmV3LUOV9js,Hotel Grand Purandar Ambodi,"Wagapur saswad road vanpuri, chowk, Saswad",18.3625514,74.0560264,4.0,133.0,,Indian,"restaurant, food, point_of_interest, establishment",+91 86982 02727,,,2025-10-18T11:19:44.294481
ChIJwWIJDgDlwjsRAf17miGzdXE,Mankar dosa,"82VP+299, Ekhatpur, Saswad",18.3425311,74.0362074,3.7,43.0,,Indian,"restaurant, food, point_of_interest, establishment",+91 91728 51032,,,2025-10-18T11:19:44.632087
ChIJPYmSEFrlwjsRak0PlXPDeYM,Gulmohar hotel,"Bus Stand, Kumbharwada, Saswad",18.3451408,74.0322805,4.1,198.0,,Indian,"restaurant, food, point_of_interest, establishment",+91 98228 63641,,,2025-10-18T11:19:44.947165
ChIJJ8os0mPlwjsRnUVgQM3ZdP8,Hotel shivshambho,"82VM+JGM, Naka, Supa, Saswad Rd, Jejuri",18.3440795,74.033788,3.5,44.0,,Indian,"restaurant, food, point_of_interest, establishment",+91 99212 87653,,,2025-10-18T11:19:45.256972
ChIJS-Jqbr7vwjsR3EKm_VAjgD0,Garva Biryani,"922H+594, Swarna Nagari, Saswad",18.3503762,74.0284504,2.9,31.0,,Indian,"restaurant, food, point_of_interest, establishment",,,,2025-10-18T11:19:45.556460
ChIJVe8P9v3lwjsRabNghWdh5i8,MAHARAJA BIRYANI HOUSE,"Building Road, NB Paradise Rd, Sonori, Shri Swami Samarth Society, Saswad",18.351025,74.0334,5.0,4.0,,Indian,"restaurant, food, point_of_interest, establishment",+91 89750 55547,,,2025-10-18T11:19:45.840316
ChIJvaLQOn_vwjsRurNdSztLcWo,"Vrundavan Family Restaurant, Saswad / Hadapsar - Jejuri Rod","Sable foundation, Sopan Nagar, Saswad",18.3621299,74.0251772,4.2,333.0,2.0,Indian,"restaurant, food, point_of_interest, establishment",,,,2025-10-18T11:19:46.168539
ChIJs7sdQV3lwjsRlUaCoZnuYVQ,Visawa,"82RP+PGF, visawa hotel, next to nana dhumal petroleum, Saswad",18.3418062,74.0362936,4.2,52.0,,Indian,"restaurant, food, point_of_interest, establishment",+91 93720 50976,,,2025-10-18T11:19:46.577848
ChIJLTYA-32XwjsRn4FavP_e5_s,Hotel Ranjai Farm,"Road, Panshet, Khanapur",18.389781,73.6832462,4.8,24.0,,Indian,"restaurant, point_of_interest, food, establishment",+91 72648 67476,,,2025-10-18T11:19:50.379983
ChIJIRyJZk2XwjsRzvqKU0oSqI8,हॉटेल जाधवराव,"Pune - Panshet Rd, Pune, Nigade Mose",18.3882865,73.69532029999999,5.0,73.0,,Indian,"restaurant, point_of_interest, food, establishment",+91 86259 32095,,,2025-10-18T11:19:50.664372
ChIJFc3MAQGXwjsR2adB4SzHdF8,Hotel Shetkari,"Near Nigde-Osade Bus Stop, Panshet Road, Tal.velhe, Pune, Osade",18.3876846,73.69187459999999,4.5,457.0,2.0,Indian,"restaurant, point_of_interest, food, establishment",+91 86053 50707,http://hotelshetkari.com/contact.php,,2025-10-18T11:19:50.952015
ChIJbULpBwCXwjsRmDLwcEypFOY,Jai Ganesh Special Tea,"9MRM+C83, Panshet Rd, Osade",18.3901083,73.6835183,5.0,4.0,,Indian,"restaurant, point_of_interest, food, establishment",,,,2025-10-18T11:19:51.240110
ChIJA0ar-PSTwjsR3x2L12uSpOA,Hotel Gurudatta,"Sinhgad Rd, Aatkarwadi, Aatekar Vasti, Ghera Sinhagad",18.3805783,73.7680215,4.2,140.0,1.0,Indian,"restaurant, food, point_of_interest, establishment",+91 77987 23636,,,2025-10-18T11:19:54.180645
ChIJ_3ZDXvXtwjsR7nyTbeoFvxQ,"Morya Misal, Dosa Junction","9WVC+7JG, Bhivri",18.3931934,73.92157490000001,4.5,26.0,,Indian,"restaurant, food, point_of_interest, establishment",,,,2025-10-18T11:19:58.963549
ChIJ_88qbUntwjsRLJdMgVdSsSI,Hotel Lonkarwada,"भिवरी पुरंदर, पुणे, Bhivri",18.392372,73.9218467,4.1,670.0,2.0,Indian,"restaurant, food, point_of_interest, establishment",+91 86989 80160,,,2025-10-18T11:19:59.264935
ChIJvdUu5QXswjsRwY0kaI4hQdc,Hotel Nisarg,"Saswad - Bopdev - Pune Rd, Bhivri",18.3912319,73.9249346,4.0,341.0,1.0,Indian,"restaurant, food, point_of_interest, establishment",+91 97678 35284,,,2025-10-18T11:19:59.529530
ChIJqdAMgQXvwjsR3Qc0WbQgCwM,MADURAI SOUTH INDIAN SNACKS CENTER,"Saswad - Bopdev - Pune Rd, near kanafnat temple, Bhivadi, Bopgaon",18.3856812,73.9502054,5.0,2.0,,Indian,"restaurant, point_of_interest, food, establishment",,,,2025-10-18T11:20:00.660434
ChIJCQ6L393vwjsRbML8T_572Xk,Rashmi Misal and Snacks,"9XM3+6MX, Kondhwa Main Rd, Bopgaon",18.3831105,73.9542316,4.8,12.0,,Indian,"restaurant, food, point_of_interest, establishment",,,,2025-10-18T11:20:01.762489
ChIJpdpaAPDvwjsRFgDPg0Kvxwo,Chaitanya Misal and Ammrutulya,"Kondhwa - Saswad Rd, Bopgaon",18.3884235,73.9420119,4.6,147.0,,Indian,"restaurant, food, point_of_interest, establishment",+91 99600 30313,,,2025-10-18T11:20:02.052062
ChIJrZ23AjfvwjsRmgT-99CMZR0,Chhajja - The Coffee Shop,"92W3+652, Fort JadhavGadh Road, Hadapsar - Saswad - Jejuri Rd, Jadhavwadi",18.3955237,74.0026403,4.1,60.0,,Indian,"cafe, store, restaurant, food, point_of_interest, establishment",+91 86008 77520,,,2025-10-18T11:20:03.195483
ChIJcfZsBbTlwjsRgqC6Pry6tKk,HOTEL SONORI VILLAGE,"92FW+Q6R, Saswad-Sonori Rd, Saswad",18.374475,74.0455033,4.0,60.0,,Indian,"restaurant, food, point_of_interest, establishment",+91 91195 55675,,,2025-10-18T11:20:05.264680
ChIJlfuLXELlwjsRbA6_82c17ts,Hotel bhosale farm,"G NO-709 A/P-SONORI NEAR KALE FARM PURANDHAR, Sonori",18.3763429,74.042658,5.0,3.0,,Indian,"restaurant, food, point_of_interest, establishment",,,,2025-10-18T11:20:05.532193
ChIJ4V2qf9_lwjsRxl8tJZ79d3U,Hotel Aabancha Mala,"92FV+PHQ rod morevasti, Saswad-Sonori Rd",18.3743293,74.04401779999999,4.9,61.0,,Indian,"restaurant, food, point_of_interest, establishment",+91 91757 06574,,,2025-10-18T11:20:05.814077
ChIJ0ZopOqOZwjsR8TjVspSWFMQ,Hotel Varasgoan Choupati & camping point,"CJ28+93X, Panshet Lavasa Rd, Palase",18.4009949,73.6152394,4.2,175.0,2.0,Indian,"restaurant, food, point_of_interest, establishment",+91 96232 78928,,,2025-10-18T11:20:07.673070
ChIJXWo9RQCXwjsRkaUkLkxqD8A,Hotel Patil wada,"CP86+42, Mandvi Bk.",18.4150326,73.7096337,4.8,13.0,,Indian,"restaurant, food, point_of_interest, establishment",+91 70206 77189,,,2025-10-18T11:20:11.052118
ChIJvcNd-kSXwjsR-lV1rnUxbek,Upkar mala उपकार मळा,"Road, Bahuli, Kudje",18.4152917,73.7260123,4.3,204.0,,Indian,"park, restaurant, food, point_of_interest, establishment",+91 99227 63232,,,2025-10-18T11:20:11.416218
ChIJ7VelVlOXwjsR0tJzHWTwm1Q,Hotel Bhavani Wada special khekda and mutton bhakari| हॉटेल भवानी वाडा स्पेशल खेकडा आणि मटन भाकरी,"Opposite Zapurza Museum of Art & Culture Kudje, Haveli, Pune",18.4183949,73.73663499999999,4.6,661.0,,Indian,"restaurant, point_of_interest, food, establishment",+91 96897 39399,,,2025-10-18T11:20:12.413408
ChIJq16e1yGUwjsRcSLDmWacc0U,Shivar - The Rural Maharashtrian Food,"Panshet Rd, Gorhe Khurd, Pune",18.4055715,73.7514255,4.3,1081.0,2.0,Indian,"restaurant, point_of_interest, food, establishment",+91 74476 50111,,,2025-10-18T11:20:12.692391
ChIJa50CDHuXwjsRPK6WjNSjAhw,Cafe by Poona Guest House,"CP8P+JW, Agalambe",18.4165075,73.73724,3.3,38.0,,Indian,"restaurant, point_of_interest, food, establishment",,,,2025-10-18T11:20:13.099491
ChIJ21EkWQCXwjsROw9FOt9rI8E,HOTEL SAYAJI agalmbe,"CP7H+MJ7, Agalambe",18.4141594,73.72903149999999,3.9,85.0,,Indian,"restaurant, point_of_interest, food, establishment",,,,2025-10-18T11:20:13.412397
ChIJB57g9xCVwjsR_7A26rBGTlk,THE UPPER DECK Wine-Dine-Banquets,Ghera Sinhagad,18.4014926,73.7683699,4.6,27.0,,Indian,"restaurant, food, point_of_interest, establishment",,http://theupperdeck.co.in/,,2025-10-18T11:20:14.503088
ChIJ_ZZ3SNCVwjsRRyn8VZA4RkU,Jogeshwari Misal,"Donje Gaon-Sinhagad Rd, Pune, Girinagar",18.4145619,73.7618469,4.0,1111.0,2.0,Indian,"restaurant, food, point_of_interest, establishment",+91 86687 19946,,,2025-10-18T11:20:14.793969
ChIJVwZeWwCVwjsRbuLW7HqKjwY,Hotel 12 Maval Singhgad,"Sinhgad Rd, Girinagar, Donaje",18.4133053,73.76521470000002,4.4,363.0,,Indian,"restaurant, food, point_of_interest, establishment",,https://g.co/kgs/LwoA4hs,,2025-10-18T11:20:15.085039
ChIJUTjQosCWwjsRL2M4iLUcGRw,Hotel Samadhan,"Panshet Rd, Gorhe Khurd, Pune",18.4062583,73.7552197,4.2,1241.0,2.0,Indian,"restaurant, food, point_of_interest, establishment",+91 93733 00701,,,2025-10-18T11:20:15.394871
ChIJXc4aCROUwjsRzfu05raVlBk,Hotel Amruteshwar & Restaurant Lodging,"Donje (Golewadi), Tal, Haveli,, Sinhgad Rd, Pune",18.3992109,73.768633,3.8,117.0,,Indian,"restaurant, food, point_of_interest, establishment",+91 89757 51975,,,2025-10-18T11:20:15.984673
ChIJ-UZBZW3rwjsRZVOfrgk2xR4,Cloud Hills - The Lounge,"Tal. Haveli, Sr. No. 137, Katraj Ghat Rd, Bhilarewadi, Pune",18.4192192,73.8573287,4.1,101.0,,Indian,"night_club, bar, restaurant, point_of_interest, food, establishment",+91 99237 72050,https://www.instagram.com/cloudhillspune,,2025-10-18T11:20:18.841221
ChIJe0nj-TvrwjsRqVC6WUZoUbg,Nisarg Garden Dhaba Restaurant and Bar,"Pune Banglore Highway, Bhilarewadi, Katraj, Pune",18.4213189,73.8592781,3.7,782.0,,Indian,"restaurant, point_of_interest, food, establishment",+91 72761 70717,,,2025-10-18T11:20:19.134590
ChIJnd0P6RGVwjsRc_6BpcuIalw,MUDRA Hill Top Family Restaurant,"Unnamed Road, Kolewadi, Mangadewadi",18.4125701,73.83080249999999,4.0,497.0,,Indian,"restaurant, point_of_interest, food, establishment",+91 97657 04234,,,2025-10-18T11:20:19.418385
ChIJ8XpsFh_rwjsRS9h4qxrprT8,Asmita Wadewale,Askarwadi,18.4026897,73.91151119999999,4.2,1520.0,2.0,Indian,"restaurant, food, point_of_interest, establishment",,,,2025-10-18T11:20:21.407318
ChIJW1IOFCLrwjsRoHKDLDgcE_I,Oscarwadi Misal,"Askarwadi Phata, Near Bapdeo Ghat, Kondhwa, Kondhwa - Saswad Rd, At Post, Bhivri",18.3990642,73.9136362,3.8,2981.0,2.0,Indian,"restaurant, food, point_of_interest, establishment",+91 88889 60392,,,2025-10-18T11:20:21.816030
ChIJmXAU6CfrwjsRu9c79zXwTNg,Hotel Grand Purandar,"Askarwadi , Kondhwa-Saswad Road, Bhopdev Ghat At Post Bhivri, Tal:, Purandar, Pune",18.4015398,73.91183,4.2,2660.0,,Indian,"restaurant, food, point_of_interest, establishment",,https://instagram.com/hotelgrandpurandarpune?utm_medium=copy_link,,2025-10-18T11:20:22.217518
ChIJR4T2DQDvwjsRV5WdqhB6GUE,Atithi Veg,"C227+77M, Saswad Rd, Kalewadi",18.4007184,74.01318599999999,4.9,376.0,,Indian,"restaurant, food, point_of_interest, establishment",,https://atithirestaurant.org/,,2025-10-18T11:20:26.329307
ChIJESDB9_frwjsRBr8YNn9hm_g,Hotel Hindavi 369,"Saswad, Hadpsar road, near bharat petrol pump, Zendewadi",18.4047368,74.0117693,4.8,150.0,2.0,Indian,"restaurant, food, point_of_interest, establishment",,,,2025-10-18T11:20:26.722740
ChIJM5o8ItHpwjsR92R8AfWII58,"Hotel Garwa, Zendewadi","S.No.390, A/P Zendewadi(Dive, Tal-Purandar, Hadapsar - Saswad - Jejuri Rd, Pune",18.4029877,74.01219789999999,4.0,3660.0,2.0,Indian,"restaurant, food, point_of_interest, establishment",+91 98819 22122,,,2025-10-18T11:20:27.035755
ChIJtYmOg6PvwjsRauPWWqHHC5M,Hotel 7/12,"C227+J4G, Hadapsar - Saswad - Jejuri Rd, opposite kale lawns, Kalewadi",18.4021709,74.0127828,3.5,1908.0,,Indian,"restaurant, food, point_of_interest, establishment",+91 80 6242 9510,,,2025-10-18T11:20:27.331933
ChIJBf83rEbvwjsRqskK73E-b-A,Hotel Chul Mutton Saswad - Sagar Takawale Group Of Hotel,"GAT No 328, Purandar, Saswad Rd, opposite HP Petrol Pump, Kalewadi, Pune",18.4009554,74.0124522,4.8,2485.0,,Indian,"restaurant, food, point_of_interest, establishment",+91 91527 35555,https://www.hotelchulmutton.in/,,2025-10-18T11:20:27.636701
ChIJV0IBiULvwjsRItqp9fKhfNU,MAYUR GARDEN FAMILY RESTAURANT,"Pune saswad road, Dive Ghat Rd, Kalewadi",18.3991359,74.0128534,4.1,1995.0,2.0,Indian,"bar, restaurant, food, point_of_interest, establishment",,https://mayurgarden.com/,,2025-10-18T11:20:27.932618
ChIJ41HQxk7vwjsRPm7Fa7y9y2o,Shakuntala Misal,"bus Stop, Hadapsar - Saswad - Jejuri Rd, Kalewadi, Saswad",18.3977284,74.0134576,4.4,2831.0,1.0,Indian,"restaurant, food, point_of_interest, establishment",+91 70408 30492,,,2025-10-18T11:20:28.241164
ChIJ-99ahzXvwjsRTLjuS6PsWx4,Hotel Aaisaheb Veg - Nonveg,"RTO Road, above Dive Ghat Road, Zendemala, Zendewadi, Kalewadi",18.4026522,74.0167803,4.1,437.0,,Indian,"restaurant, food, point_of_interest, establishment",+91 95529 17349,,,2025-10-18T11:20:28.518163
ChIJqYy3SQnvwjsRv552WuESycw,Hotel Thirsty panda family restaurant and bar and empire executive,"Saswad Rd, Kalewadi, Pune",18.3999094,74.0130885,4.7,77.0,,Indian,"restaurant, bar, lodging, food, point_of_interest, establishment",+91 90757 47524,https://www.booking.com/Share-0q0na9,,2025-10-18T11:20:28.807084
ChIJpWYAiuTvwjsRZgc2K1FjEso,Panchavati Restaurant,Kalewadi,18.403218,74.0126263,4.8,16.0,,Indian,"restaurant, food, point_of_interest, establishment",,,,2025-10-18T11:20:29.095990
ChIJeaLt9UvvwjsRpqJZ9U4sax0,Deshpande veg saswad,"C226+WVM, Kalewadi",18.4023485,74.0121668,3.5,559.0,,Indian,"lodging, restaurant, food, point_of_interest, establishment",,,,2025-10-18T11:20:29.375518
ChIJUcvzBTvnwjsRBZ6oEg7rcaM,Hotel Malhargad,"C26W+65J, Unnamed Road, Kalewadi",18.4106163,74.0453934,4.8,12.0,,Indian,"restaurant, food, point_of_interest, establishment",,,,2025-10-18T11:20:30.521913
ChIJKfRmXQCXwjsR2YrjPKQxHCQ,BABA RAMDEV DINING HALL,"NDA Road, near by prathmesh khekda khadakwasla, Kudje, Pune",18.4281219,73.74150709999999,4.3,11.0,,Indian,"restaurant, food, point_of_interest, establishment",+91 95033 07238,,,2025-10-18T11:20:36.549596
ChIJNQ1lsFqVwjsRz8tC3udvDmE,Mircho Misal,"50 meters from, CQRH+FF5 SHREE SWAMI SHANKARA PETROLEUM, Shop No.5 and 6, Saptagiri Heights, DIAT Road, opposite Homedale, Khadakwasla, Pune",18.4409681,73.7783536,4.1,231.0,,Indian,"meal_takeaway, cafe, restaurant, food, point_of_interest, establishment",+91 96659 70906,,,2025-10-18T11:20:37.876894
ChIJR9XHoCOVwjsRWA9O9MWFB5E,Naadbramha Idli - Kolhewadi,"Shop no 12, jaldhara complex, fata, Sinhgad Rd, opp. CWPRS gate, Kolhewadi, Pune",18.4445896,73.7858238,4.8,78.0,,Indian,"restaurant, point_of_interest, food, establishment",+91 80075 33131,https://naadbramha.com/,,2025-10-18T11:20:38.989493
ChIJ0Tti8hCVwjsRg9jJhqrlcYw,Samruddhi Veg Non Veg Family Restaurant,"Last Bus Stop, S. No. 11/2, Samruddhi Aangan, Main Chowk, Dhayari Phata Rd, Dhayari, Pune",18.446785,73.8102279,4.0,1179.0,2.0,Indian,"restaurant, point_of_interest, food, establishment",+91 99237 30494,,,2025-10-18T11:20:39.268771
ChIJ2XGyvAGVwjsRgF1Hl3oRWOA,Jogeshwari Misal,"DSK Vishwa Rd, Chavan Bagh, DSK Vishwa, Dhayari, Pune",18.4472603,73.8059313,4.2,1921.0,2.0,Indian,"restaurant, point_of_interest, food, establishment",+91 87674 20426,https://jogeshwarimisal.com/,,2025-10-18T11:20:39.538362
ChIJaf3AgDOVwjsRvbcXUC0quWE,Annapurna Kitchen,"CQVP+4C9, Unnamed Road, Kolhewadi, Pune",18.4427858,73.78611769999999,4.5,17.0,,Indian,"restaurant, point_of_interest, food, establishment",+91 96237 15760,,,2025-10-18T11:20:39.909081
ChIJ1xjTcRGVwjsRXAFcj9pbWYM,Raj Garden Family restaurant and bar,"& Bar, Raj Garden Family Restaurant, Ganesh Nagar, Sitaee Nagar, Dhayari, Pune",18.4501052,73.8106456,3.8,820.0,2.0,Indian,"bar, restaurant, point_of_interest, food, establishment",+91 84118 18440,,,2025-10-18T11:20:40.198216
ChIJl7KxaxGVwjsR6OX-_-fpM1I,"Deshpande Swayampakghar, Dhayari","Dhayari Phata Rd, near Muktai Garden, Ganesh Nagar, Sitaee Nagar, Dhayari, Pune",18.4497571,73.81073769999999,4.2,901.0,1.0,Indian,"restaurant, point_of_interest, food, establishment",+91 76664 72146,,,2025-10-18T11:20:40.502826
ChIJIxV_uLeVwjsREW7eGIu6AYA,Hotel Vedant Pure Veg,"Tathe Building, opp. Astonia Royale, Ambegaon Budruk, Pune",18.4491768,73.8368026,4.1,5207.0,2.0,Indian,"restaurant, food, point_of_interest, establishment",+91 93597 26259,,,2025-10-18T11:20:41.768814
ChIJdaDG5ImVwjsRtlWABtQv0e0,The mango family garden restaurant,"39/8, near the mango family restaurant, Dalavi Nagar, Ambegaon Budruk, Pune",18.448667,73.8396886,3.8,945.0,2.0,Indian,"restaurant, food, point_of_interest, establishment",+91 98815 77576,https://gardenrestaurant.org/,,2025-10-18T11:20:42.086468
ChIJY_QuXRqVwjsRBp-7ErHcXcM,THE FUSION DOSA,"Shop No. U-5, audumber niya, Zeal College Rd, near balaji traders, opp. varad resataurant and bar, Mokarwadi, Pune",18.4451993,73.8229727,4.9,91.0,,Indian,"cafe, store, restaurant, food, point_of_interest, establishment",+91 79724 28946,https://www.thefusiondosa.in/,,2025-10-18T11:20:42.363399
ChIJeUdf5JiVwjsRvLsIIY8OGNk,Hotel kolhapuri (special tambada-pandhara rassa),"Vetal Buva Chowk, Mokarwadi, Pune",18.4480059,73.82950149999999,4.6,193.0,,Indian,"restaurant, food, point_of_interest, establishment",+91 97673 57431,,,2025-10-18T11:20:42.628968
ChIJoRXOMQCVwjsRyVcqFH7fKjs,Aanandii foods (आनंदी फुड्स),"Mokarwadi, Pune",18.4436637,73.8303895,5.0,11.0,,Indian,"restaurant, food, point_of_interest, establishment",,,,2025-10-18T11:20:42.952751
ChIJ--f0TgCVwjsRRUy29wXi7l8,Rayba Dum Biryani,"Narhe Ambegaon Rd, near Bharat Petroleum, Bhumkar Nagar, Narhe, Pune",18.4490173,73.8339199,4.3,39.0,,Indian,"restaurant, food, point_of_interest, establishment",+91 77220 71818,,,2025-10-18T11:20:43.249753
ChIJd_CRDVu_wjsRT8WKnEmTbFg,Biryani By Layer,"Flat No 504, Vishnu Heights, near Vision English Medium School, Narhe, Pune",18.4446832,73.83391859999999,5.0,41.0,,Indian,"restaurant, food, point_of_interest, establishment",+91 82374 70909,,,2025-10-18T11:20:43.541495
ChIJr9nHxD2VwjsR1npszhMm3Dw,Mitrangan Amruttulya Aani Misal,"CRQH+H55, Abhinav College Rd, Narhe, Pune",18.438974,73.8279891,4.9,36.0,,Indian,"restaurant, food, point_of_interest, establishment",,,,2025-10-18T11:20:43.851556
ChIJczqcFz2VwjsRLcokAh0VPJA,Hotel Anand Garden family restaurant & Bar,"Dhayari Narhe Road, Pari Co. Chowk, Dhayari,, Pune",18.4468633,73.8206715,3.8,228.0,1.0,Indian,"restaurant, food, point_of_interest, establishment",,,,2025-10-18T11:20:44.128365
ChIJwyDkyCDrwjsRhdnpeeuAsF4,Ahilyadevi's Thali,"Sr No 62/3, In Front Of Om Dairy, 411046, Old, Pune - Satara Rd, opposite Tiranga, Pune",18.4352681,73.8598401,3.8,4866.0,3.0,Indian,"cafe, restaurant, point_of_interest, food, establishment",+91 72769 95920,,,2025-10-18T11:20:48.701014
ChIJJ0oKB-XrwjsRF6Q55Yntf0o,Sadaguru The house of Paratha,"Katraj Depot, Santosh Nagar, Katraj, Pune",18.4460178,73.85692279999999,4.9,40.0,,Indian,"restaurant, point_of_interest, food, establishment",+91 84468 47016,https://www.swiggy.com/restaurants/sadguru-the-house-of-paratha-bibwewadi-katraj-pune-485053,,2025-10-18T11:20:49.044180
ChIJ5YcVCK3rwjsRmdh3iIkMjwY,Tatvam Kitchen,"Dattakrupa Apartment, Shivanjali Lane, 1, Datta Nagar Rd, Ambegaon Budruk, Ambegaon",18.4486631,73.8503994,4.9,37.0,,Indian,"meal_delivery, restaurant, point_of_interest, food, establishment",,,,2025-10-18T11:20:49.353180
ChIJUwkIrCTrwjsRg3hxCTupEe4,Hotel Haveli Garden,"Bhilarewadi, Pune",18.4266801,73.8591751,4.1,319.0,2.0,Indian,"restaurant, point_of_interest, food, establishment",+91 97645 10100,,,2025-10-18T11:20:49.761946
ChIJU1VVlSPrwjsRN3FgiZwWDGo,Mauli Veg Restaurant & Banquet Hall,"Sr.No,8, near Poonam Petrol Pump, Mangdewadi, Katraj, Pune",18.4304459,73.8580985,4.1,3531.0,2.0,Indian,"restaurant, point_of_interest, food, establishment",+91 72764 65050,https://www.instagram.com/mauli_veg_restaurant,,2025-10-18T11:20:50.073868
ChIJZUfjpMaVwjsRnMVvQ0nnkrM,Naadbramha Idli Narhegaon,"kalpavriksha building, Narhe Rd, 3/2, Mokarwadi, Narhe, Pune",18.4467418,73.82793699999999,3.8,202.0,,Indian,"restaurant, point_of_interest, food, establishment",+91 90670 09822,http://naadbramha.com/,,2025-10-18T11:20:50.595450
ChIJZYwcpW_rwjsRuRU8uu8BZ08,Mastan Hotel Branch no 1,"CVP6+G87, Katrajnagar, Katraj, Pune",18.4362793,73.8607997,3.9,74.0,,Indian,"restaurant, point_of_interest, food, establishment",,,,2025-10-18T11:20:50.915948
ChIJbWG7WhHrwjsR5BbdFI96_6k,Hotel Shahi Pune शाही पुणे,"bus Depo, Sr 56 . Plot no.1/3/1, Satara, Old, Gujarwadi Rd, near Chate School, Katraj, Pune",18.4407618,73.8599289,4.5,19.0,,Indian,"restaurant, point_of_interest, food, establishment",+91 90496 93339,,,2025-10-18T11:20:51.183795
ChIJrcMz0d7qwjsRV7m880zvA3I,Royal Punjab Family Restaurant and Bar,"Hotel HMR Royal Inn,Survey 53/17B Near Katraj Chowk, Pune - Satara Rd, opp. Gandharva lawns, Katraj, Pune",18.4412858,73.86027399999999,3.8,503.0,2.0,Indian,"restaurant, point_of_interest, food, establishment",+91 79721 47636,https://www.facebook.com/royalpunjabrestaurantbar/,,2025-10-18T11:20:51.604159
ChIJmUW0dSHrwjsR_UCqNw3cvOg,Hotel kumau veg nonveg,"society, Jambhulwadi Rd, opposite Vasundhara, Dattanagar, Katraj, Pune",18.4364221,73.8464262,4.8,24.0,,Indian,"restaurant, point_of_interest, food, establishment",+91 77096 17301,,,2025-10-18T11:20:51.869402
ChIJb2nl6QXrwjsRKnuCQ7MsSn4,Hotel Mahabaleshwar Family Restaurant & Bar,"Vighnaharta Nagar, Katraj, Pune",18.4480666,73.8684057,4.0,1284.0,2.0,Indian,"bar, restaurant, point_of_interest, food, establishment",+91 91431 45145,https://www.facebook.com/hotelmahabaleshwarkatraj/,,2025-10-18T11:20:52.170299
ChIJaROdvo_rwjsRwnuMiUUGY7g,KAVYA PURE VEG,"Anupam Arcade, Pune - Bengaluru Hwy, Katraj, Pune",18.4500552,73.8577225,4.5,28.0,,Indian,"restaurant, point_of_interest, food, establishment",+91 70309 07090,,,2025-10-18T11:20:52.481061
ChIJV7r8G1uVwjsR1GKof9dLc8Y,Muktai kitchen 2,"opposit of siddhi lawns, near Spanish bakrey, Narhe, Pune",18.4469312,73.8281863,3.6,54.0,,Indian,"restaurant, point_of_interest, food, establishment",,,,2025-10-18T11:20:52.775693
ChIJnz4PYQCVwjsRbL2fPeSPLfI,Hotel Amantran,"Vetal Buva Chowk, Narhe, Pune",18.4471197,73.8286353,4.6,16.0,,Indian,"restaurant, point_of_interest, food, establishment",,,,2025-10-18T11:20:53.106981
ChIJ9748ifCVwjsRkbAcDkiQkBk,Pune Kitchen Story,"Shop No 3, KDC Food World, near Village Restro, Mokarwadi, Pune",18.4454824,73.8362784,5.0,16.0,,Indian,"restaurant, food, point_of_interest, establishment",,,,2025-10-18T11:20:53.371960
ChIJF-FeLruVwjsRDcemHPVMUlQ,Narayan dining,"Shop.no-6, orchid plaza, near Vision English Medium School, near Swaminarayan Mandir Road, Narhe, Pune",18.4444649,73.8340535,4.6,32.0,,Indian,"restaurant, food, point_of_interest, establishment",+91 90015 35457,,,2025-10-18T11:20:53.658067
ChIJ06ECtfTrwjsRku9u7iH2Vts,Kinara Veg Nonveg Family Restaurant and Lodging,"Bus Stop, Pune - Satara Rd, near BRT (PMT, Katraj Vasahat, Katraj, Pune",18.4450188,73.8595575,4.1,469.0,,Indian,"restaurant, food, point_of_interest, establishment",+91 91305 90459,,,2025-10-18T11:20:53.923988
ChIJh5KMSs7qwjsRW4z2W6tCpag,Jai Bhavani Restaurant,"14, Chandrabhaga Nagar Rd, Dattanagar, Shriram Nagar, Katraj, Pune",18.4501903,73.8506048,4.1,528.0,,Indian,"restaurant, food, point_of_interest, establishment",+91 98600 23083,,,2025-10-18T11:20:54.265987
ChIJp92gqJWVwjsRSfWxVJBgtPI,KDC Food World,"S. No 100, 4, Service Road, Mokarwadi, Pune",18.4452288,73.836512,4.1,84.0,,Indian,"restaurant, food, point_of_interest, establishment",+91 80101 41225,,,2025-10-18T11:20:54.572642
ChIJ3QLn7OzrwjsRNGeOkelrBHk,Hayat caterers,"Katraj, Pune",18.4474601,73.8602152,5.0,11.0,,Indian,"restaurant, food, point_of_interest, establishment",+91 75584 11997,,,2025-10-18T11:20:55.006489
ChIJUeGk2YyVwjsRHwu4H5ay87w,Banjara Thali kitchen,"KISHORI PRANGAN, NEAR, CHATKADAR CHOUPATI, AJINKYATARA, Mokarwadi, Pune",18.4447602,73.8280539,,,,Indian,"restaurant, food, point_of_interest, establishment",,,,2025-10-18T11:20:55.392396
ChIJu9FuUQCVwjsRM5d_qiA9y_c,HOTEL KRUSHNAI RESORT,"CRJP+P63, Mokarwadi, Jambhulwadi",18.4318005,73.8355713,4.8,17.0,,Indian,"restaurant, food, point_of_interest, establishment",+91 87883 38291,,,2025-10-18T11:20:55.707059
ChIJHXrDksPrwjsR0BodhdyDuHs,Jogeshwari Missal and Bhel,"CVRV+FV, Kondhwa Budruk, Pune",18.441047,73.8944341,4.2,273.0,,Indian,"restaurant, food, point_of_interest, establishment",,,,2025-10-18T11:20:57.031113
ChIJmQmfU_rqwjsRMzR6-AcwK_4,Govinda's -International Chain Of Restaurant,"Iskcon Nvcc Temple, Survey-50, Katraj Katraj, Kondhwa, Bye Pass Road, Kondhwa Budruk, Pune",18.4491666,73.8802078,4.3,953.0,2.0,Indian,"restaurant, food, point_of_interest, establishment",+91 72498 61818,https://govindarestaurant.org/,,2025-10-18T11:20:57.361186
ChIJgw-XoFbqwjsR3Qh7nAEIBek,Hotel Angaraj Family Resto-Bar,"Survey Number -37, 1/3/6, Yewalewadi Rd, near Khadi Machine Chowk, Danny Mehata Nagar Industrial Area, Kondhwa Budruk, Pune",18.4466021,73.89357439999999,4.0,2403.0,,Indian,"bar, restaurant, food, point_of_interest, establishment",+91 91300 28070,https://angarajfamilyrestrobar.com/,,2025-10-18T11:20:57.748174
ChIJ_w6QDjLrwjsRqmXv4ilwseQ,Naadbramha Idli Kondhwa Budruk,"Tilekar Nagar, Kondhwa Budruk, Pune",18.4436521,73.8857108,3.8,66.0,,Indian,"restaurant, food, point_of_interest, establishment",+91 75593 12121,https://naadbramha.com/,,2025-10-18T11:20:58.028193
ChIJ7WdYy5HpwjsR3XXD2LcSaFk,Shree Someshwar Bhojnalaye ( Laturkar ),"Survey Number 40,Near Sinhgad College Main Gate, Kondhwa Road, Saswad Rd, Yewalewadi",18.441651,73.8946888,4.5,148.0,1.0,Indian,"restaurant, food, point_of_interest, establishment",,,,2025-10-18T11:20:58.308735
ChIJA_WX9GjrwjsREeSqHiTLRs8,The Pista Biryani house,"Saswad road, Yewlewadi, Kondhwa Budruk, Pune",18.4427772,73.8941828,4.9,10.0,,Indian,"restaurant, food, point_of_interest, establishment",,,,2025-10-18T11:20:58.592418
ChIJM5MBDQDrwjsRzFrq_ciMvUo,Flavours of Chandigarh,"Godrej Greens, Pune",18.4465911,73.92165159999999,5.0,1.0,,Indian,"restaurant, food, point_of_interest, establishment",,,,2025-10-18T11:20:59.639223
ChIJJdLSZAjrwjsRFOiK5d3ZU0Q,Maazho kokan seafood restaurant,"Dynamic Granduer E wing, Wadachi Wadi Rd, Shree Siddhivinayak Meera, Undri, Pune",18.4456659,73.91622219999999,4.8,319.0,,Indian,"restaurant, food, point_of_interest, establishment",+91 93259 47174,,,2025-10-18T11:20:59.919544
ChIJ8VveefzrwjsRgl4GtCBRLac,Urban Dessi Restaurant,"Shop No. 20, VTP Trade Park, Chowk, Katraj-Hadapsar Bypass Rd, near Undri - Hadapsar Road, Shree Siddhivinayak Meera, Undri, Pune",18.4492837,73.91330099999999,4.2,46.0,,Indian,"restaurant, food, point_of_interest, establishment",+91 97306 67660,,,2025-10-18T11:21:00.188715
ChIJYb2VyhHrwjsRycdEPz1JaMk,Krushna Pure Veg Family Restaurant,"Undri, Pune",18.4498119,73.9115451,4.0,1072.0,2.0,Indian,"restaurant, food, point_of_interest, establishment",+91 92263 47536,,,2025-10-18T11:21:00.813563
ChIJOUQndS_rwjsR_0-tOFXeh4Y,Chokha Swaad,"Yewalewadi, Pisoli, Pune",18.4470561,73.9079694,5.0,22.0,,Indian,"restaurant, food, point_of_interest, establishment",+91 94619 56136,,,2025-10-18T11:21:01.124049
ChIJK1T54IzrwjsRZ6kigyu1M6k,Ananya's home made reserved kitchen Pisoli,"Block-B, Dreams Wisteria, Yewalewadi, Shree Siddhivinayak Meera, Kondhwa Budruk, Pune",18.4447318,73.9074384,5.0,31.0,,Indian,"restaurant, food, point_of_interest, establishment",,,,2025-10-18T11:21:01.381387
ChIJHZVVYADrwjsR9YjBa7gb-LE,Shlok Pure Veg,"CWW8+MP8, Wadachi Wadi, Undri, Pune",18.4466638,73.9168394,4.3,11.0,,Indian,"restaurant, food, point_of_interest, establishment",,,,2025-10-18T11:21:01.648727
ChIJAft6oTbqwjsRt4XAPoJfY8A,Swaad,"Shop No 1, Kad Nagar, Undri, Pune",18.449004,73.917097,4.4,9.0,,Indian,"restaurant, food, point_of_interest, establishment",+91 99223 91189,,,2025-10-18T11:21:01.931155
ChIJY4nwLQDrwjsROrJc6eN3Ttk,Shlok pure veg,"CWPF+MQ9, Wadachi Wadi, Undri, Pune",18.4366694,73.9244964,5.0,3.0,,Indian,"restaurant, food, point_of_interest, establishment",,,,2025-10-18T11:21:03.122048
ChIJgTo82QvpwjsR8N_-s1SdwPI,Hotel Waghdara,"Pinjanwasti, Holkarwadi Road, Uruli Devachi, Pune",18.4330581,73.9523375,4.8,25.0,,Indian,"lodging, restaurant, food, point_of_interest, establishment",,,,2025-10-18T11:21:03.386782
ChIJj6ubXQTpwjsR2pHnxHsxkBQ,HOTEL ABHIRUCHI,"A/p Wadki, Dahava Mail, Hadapsar - Jejuri Road, Tal. Haveli,, Pune",18.4398283,73.97560150000001,4.1,228.0,,Indian,"restaurant, food, point_of_interest, establishment",+91 97676 31727,,,2025-10-18T11:21:05.327389
ChIJZZZAYKyiwjsRPjdtlspul9c,Amrale Misal,"Mutha ghat, Pune Maharashtra 412115 IN, Temghar-Lavasa Rd, Ambegaon",18.4727877,73.6505198,4.1,963.0,1.0,Indian,"restaurant, food, point_of_interest, establishment",+91 99228 03580,,,2025-10-18T11:21:09.625222
ChIJD1RKNPWVwjsRWzeqPeAqCiQ,BOX8 - India's Largest Desi Meals Brand,"Ward No. 4, Haveli, Ashirwad Garden Society Ingle Colony, Ground Floor, Shop No. 3, Omkar Complex, NDA Rd, Shivane, Pune",18.4658155,73.7770674,4.8,225.0,,Indian,"restaurant, point_of_interest, food, establishment",,https://box8.in/,,2025-10-18T11:21:13.216061
ChIJ-wK9JyWVwjsRKLBascTNMbM,Naadbramha Idli Uttam Nagar,"Uttam Nagar, Shivane, Pune",18.4622075,73.77341,4.7,199.0,,Indian,"lodging, restaurant, point_of_interest, food, establishment",+91 95292 32326,https://naadbramha.com/,,2025-10-18T11:21:13.524742
ChIJgYccVeuVwjsRzrbyuozf3Pc,RASOI GHAR (PURE VEG FAMILY RESTAURENT),"more petrol pump, Near, NDA Rd, Uttam Nagar, Shivane, Pune",18.4648667,73.7756622,4.6,152.0,,Indian,"restaurant, point_of_interest, food, establishment",+91 92093 25464,,,2025-10-18T11:21:13.798924
ChIJTWnRcmiVwjsR9SODIOkGOTs,Nikhara Shahi Biryani,"Yashwant Nagar, Deshmukh Nagar, Shivane",18.4666849,73.7792893,4.2,378.0,,Indian,"restaurant, point_of_interest, food, establishment",+91 75075 13636,,,2025-10-18T11:21:14.134698
ChIJF-Ae442VwjsRIRQt0nF6zZE,Rudra Pure Veg Restaurant,"ingale corner, Ashirwad Garden Society Ingle Colony, 31/2/2, NDA Rd, next to Shahu bank, Uttam Nagar, Shivane, Pune",18.4660953,73.7771479,4.1,2655.0,2.0,Indian,"restaurant, point_of_interest, food, establishment",+91 89991 14711,,,2025-10-18T11:21:14.542409
ChIJp0f9fACVwjsRo0G6R5B3gzA,Masala Mingle,"Nat'l, Defence Academy Area, 417/3/284, Warje Malwadi Rd, Pune, Kondhawe-Dhawade",18.458022,73.7706664,5.0,2.0,,Indian,"restaurant, point_of_interest, food, establishment",,,,2025-10-18T11:21:14.904852
ChIJx7b7CZKVwjsRGYPRjHhRlEM,HOTEL FAMOUS CHINESE,"SHOP NO.17, ASHIRWAD GARDEN SOCIETY, near MORE PETROL PUMP, Uttam Nagar, Shivane, Pune",18.4652049,73.776161,4.9,20.0,,Indian,"restaurant, point_of_interest, food, establishment",+91 97676 92792,,,2025-10-18T11:21:15.178232
ChIJVwxO-wSVwjsRcYIyF_QBBVo,MY IDLI EXPRESS SHIVANE,"SR.NO. 13/2, Pokale Nagar, Shivane, Pune",18.4650079,73.775955,4.2,26.0,,Indian,"restaurant, point_of_interest, food, establishment",+91 83800 02102,,,2025-10-18T11:21:15.566674
ChIJxTKjCgCVwjsRc0t1OVv2WMs,Great Indian Mix (GIM),"S 46, Destination Center 1, Nanded City, Nanded, Pune",18.4599009,73.78614639999999,4.9,165.0,,Indian,"restaurant, food, point_of_interest, establishment",,,,2025-10-18T11:21:17.138441
ChIJpV9wF9iVwjsR_fMxT9ieBLs,Atulya Pure Veg,"Sinhgad Rd, Nanded Fata, Pandurang Industrial Area, Nanded, Pune",18.4554837,73.7984512,4.2,3002.0,2.0,Indian,"restaurant, food, point_of_interest, establishment",+91 97935 42929,https://kuula.co/share/collection/7v7dP?logo=-1&info=0&fs=1&vr=1&initload=0&thumbs=1&margin=16,,2025-10-18T11:21:17.444270
ChIJYdvUgJmVwjsRR_ON7wLgIAE,BABA RAMDEV DINING HALL,"2nd floor, Destination Center 1, SHOP NO, S-57, Sinhgad Rd, near Global Punjab, nearby hotel global Punjab, Nanded City, Nanded, Pune",18.4601226,73.7856642,4.1,69.0,,Indian,"restaurant, food, point_of_interest, establishment",+91 95033 07238,,,2025-10-18T11:21:17.709102
ChIJjXfkR9uVwjsR5snadj_OIeg,Shree Vrindavan (Pure Veg),"G-2, Shree Vrindavan Pure Veg, Destination Center 1, Nanded City Sinhgad Rd, Nanded, Pune",18.4595887,73.78594269999999,4.1,137.0,,Indian,"restaurant, food, point_of_interest, establishment",+91 72766 21920,,,2025-10-18T11:21:17.988652
ChIJ6Rs5qbaVwjsRkD2oc9MgG64,JM housefull paratha - Pure Veg Restaurant,"Shop No - F58, Destination Center 1, Nanded City, Nanded, Pune",18.4599079,73.78607509999999,4.2,250.0,2.0,Indian,"restaurant, food, point_of_interest, establishment",,,,2025-10-18T11:21:18.241999
ChIJE0PT2NWVwjsRQAdBtBwdJdg,Savali Dhaba Family Restaurant & Bar,"FQ3V+VX2, Nanded Phatta, Sinhgad Rd, Ghule Patil Nagar, Pandurang Industrial Area, Nanded, Pune",18.4546195,73.7949194,4.0,208.0,2.0,Indian,"restaurant, food, point_of_interest, establishment",+91 86572 03203,,,2025-10-18T11:21:18.536643
ChIJuRRRX6aVwjsRJ-pRbIbdOk0,Hotel ashirwad,"Shihagad Road, Nanded City Rd, Nanded Fata, Pandurang Industrial Area, Nanded, Pune",18.456484,73.8018727,4.7,20.0,,Indian,"restaurant, food, point_of_interest, establishment",+91 93257 63740,,,2025-10-18T11:21:18.810754
ChIJgWSLuQqVwjsRFUHo2YSJQbQ,DK Biryani - Sinhagad Road,"Main Gate, Public Food Mall, Sinhgad Rd, opp. to Nanded, Pune",18.4564797,73.8016208,3.9,373.0,1.0,Indian,"restaurant, food, point_of_interest, establishment",+91 76200 26905,https://www.facebook.com/dkbiryani,,2025-10-18T11:21:19.129520
ChIJg63czJCVwjsR6HFiS3N3YJw,Someshwaram,"Nanded Fata, Dangat Nagar, Nanded, Pune",18.456041,73.7990329,,,,Indian,"restaurant, food, point_of_interest, establishment",,,,2025-10-18T11:21:19.410938
ChIJbUTLB5uVwjsRciZhcKOpGEk,Aai's Indian Restaurant,"Meenakshipuram A , Shop no. 2, Collage Road, Vadgaon Bk, Meenakshipuram, Vadgaon Budruk, Pune",18.4698346,73.83062,4.5,28.0,,Indian,"restaurant, food, point_of_interest, establishment",,,,2025-10-18T11:21:26.013971
ChIJ-yifGDmVwjsRzLlaMxWNrVo,Dakshinatya,"S.No-54, Shree, SAMARTH COMPLEX, opposite Smt. Kashibai Navale Medical College and General Hospital, Khedekar Nagar, Narhe, Pune",18.4564182,73.8246667,4.6,213.0,,Indian,"restaurant, food, point_of_interest, establishment",+91 90223 28343,,,2025-10-18T11:21:26.328777
ChIJNbGlnVGVwjsREfFm1JmvY38,Naivedhyam,"shop no 3, Hotel NAIVEDHYAM, chandrai capital, Shingad law collage, shingad law collage, road, Vadgaon Budruk, Pune",18.4632364,73.83676129999999,4.6,43.0,,Indian,"restaurant, food, point_of_interest, establishment",,,,2025-10-18T11:21:26.623552
ChIJi7r7DzCVwjsRssRiV_iWNrY,Bombay dine restaurant,"shop no 21, Law College, Chandrai capital, opposite to Sinhagad, Vadgaon Budruk, Pune",18.4630969,73.8373179,4.9,33.0,,Indian,"restaurant, food, point_of_interest, establishment",+91 95794 48780,,,2025-10-18T11:21:26.887263
ChIJobUI-PuVwjsRmu4y9AXFNkM,Naadbramha Idli - Manaji Nagar,"Shop.No. 5, Krishna Kunj, 47/12/2, Manaji Nagar, Narhe, Pune",18.4532173,73.82318470000001,4.2,15.0,,Indian,"restaurant, food, point_of_interest, establishment",+91 80878 65190,https://naadbramha.com/,,2025-10-18T11:21:27.159895
ChIJ_zSt7naVwjsRqDMWDONNwXM,The Treat Multicuisine Restaurant,"Showroom No. S-2 & S-4, Ganga Bhagyoday, Sinhgad Rd, next to Petrol Pump, Manik Baug, Anand Nagar, Pune",18.4705175,73.8208472,3.9,262.0,,Indian,"restaurant, food, point_of_interest, establishment",+91 93090 90935,https://multicuisinerestaurant.com/,,2025-10-18T11:21:27.428711
ChIJufb7Ev6VwjsRq2mah_hUAGI,Urban Spice Family Kitchen,"Krushnakunj, S.R. No.47/12/2, Shop. B-1, Manaji Nagar, Narhe, Pune",18.4534258,73.8229106,4.5,30.0,,Indian,"restaurant, food, point_of_interest, establishment",+91 91728 13737,https://magicpin.in/Pune/Narhe/Restaurant/Urban-Spice-Family-Kitchen/store/1552a27/?utm_source=gbp,,2025-10-18T11:21:27.714466
ChIJf8HQiz6VwjsRO-7L-gcEz60,Shivsagar Pure Veg.,"403, Navale Brg, Kudale Baug, Vadgaon Budruk, Pune",18.4602915,73.8237,4.2,1510.0,2.0,Indian,"restaurant, food, point_of_interest, establishment",+91 86981 79179,https://shivsagarrestaurant.co/,,2025-10-18T11:21:27.990178
ChIJtebMvfOVwjsROWHpI8Sk1Vk,JM Idly Café,"Shop no 7, Chandrai Capital Building, near Sinhgad Institute of Management, Ambegaon Budruk, Pune",18.4631537,73.8366788,4.9,19.0,,Indian,"restaurant, food, point_of_interest, establishment",+91 75591 18589,https://www.annaidly.in/,,2025-10-18T11:21:28.287043
ChIJUy00IEaVwjsREZGIFp31aCM,"Saivikas Chinese.Tandoori, & biryani..","Trimurti Hospital, 6, Narveer Tanaji Malusare Rd, near Abhiruchi Mall & Multiplex, Wadgaon Budruk, Narhe, Pune",18.4627116,73.81504319999999,4.6,55.0,,Indian,"restaurant, food, point_of_interest, establishment",+91 70388 13612,http://wwsaivikas.com/,,2025-10-18T11:21:28.582564
ChIJueOBXQCVwjsRipTpn8f5Z4U,Someshwaram South Indian Cafe,"Savera Complex, Dangat Nagar, Kudale Baug, Vadgaon Budruk, Pune",18.4661459,73.81748639999999,4.3,68.0,,Indian,"restaurant, food, point_of_interest, establishment",,,,2025-10-18T11:21:28.885949
ChIJLxXg1YSVwjsRVVQH6CHuSt8,Shreeji Pure Veg - Narhe,"Service Rd, near cold coffe day Narhe, Khedekar Nagar, Narhe, Pune",18.4560385,73.82592269999999,4.2,2577.0,2.0,Indian,"restaurant, food, point_of_interest, establishment",+91 93700 75911,,,2025-10-18T11:21:29.291145
ChIJ-Vd_Yj6VwjsRPtpV1oZSCAg,Thorat's Baarbeque Misal,"NH4 Navale Bridge Near Navale Hospital, next to Dangat Patil Nagar, Narhe, Pune",18.4577485,73.8246995,4.0,7449.0,2.0,Indian,"restaurant, food, point_of_interest, establishment",,,,2025-10-18T11:21:29.603736
ChIJn5NyTVqVwjsRsN36LIoyE9M,Naadbramha Idli Singhgad Campus,"Sinhgad Institute Rd, Vadgaon Budruk, Pune",18.4602212,73.8357898,4.8,47.0,,Indian,"restaurant, food, point_of_interest, establishment",+91 90670 09822,https://naadbramha.com/,,2025-10-18T11:21:29.917176
ChIJD6H6U8uVwjsRho3udhGNevU,Reddys family restaurant,"S NO-60/7/1A/3 NEAR HDFC BANK, Sinhgad Rd, near rejuva skin clinic and abhiruchi multiplex, Vadgaon Budruk, branch",18.465447,73.8166545,4.4,1430.0,,Indian,"restaurant, food, point_of_interest, establishment",,,,2025-10-18T11:21:30.545325
ChIJMRJTbRCVwjsRCWX-gxzXMoM,Jogi ke Chole Bhature,"Shop no. F49, Ganga Bhagyoday, street, Amrut Ganga High St, Niranjan Park, Anand Nagar, Pune",18.4702793,73.8215853,4.5,1135.0,2.0,Indian,"restaurant, food, point_of_interest, establishment",+91 72498 88688,,,2025-10-18T11:21:30.809139
ChIJ2zFBJ76VwjsRpHE7NQ5SM9M,NAIDU’S KITCHEN,"Sun City Rd, Sun City, Anand Nagar, Pune",18.4747167,73.81490509999999,4.0,128.0,,Indian,"restaurant, food, point_of_interest, establishment",+91 82370 99065,,,2025-10-18T11:21:31.076478
ChIJ-yRtEkGVwjsRc3qBNdiEUTI,Anna Vada,"Navale Brg, Kudale Baug, Vadgaon Budruk, Pune",18.4596527,73.82448219999999,3.6,416.0,,Indian,"restaurant, food, point_of_interest, establishment",+91 97652 13131,,,2025-10-18T11:21:31.380975
ChIJ1_WM-PyVwjsRX1hxuPtMg-o,Atithi Veg,"OPITMA2.0 NO 37/2/B/2/3 WADGAON BK SINHAGAD ROAD PUNE-411041, Pune",18.4699976,73.8228171,4.1,4535.0,2.0,Indian,"restaurant, food, point_of_interest, establishment",+91 97307 30650,https://atithiveg.com/,,2025-10-18T11:21:31.679727
ChIJdaFXcQCVwjsREgzd1cklADM,Vyankatesh Pure Veg Family Restaurant,"FR3C+F4Q, Dhayari-Narhe Rd, Dhayari Phata, Pune",18.4536876,73.8203442,4.4,61.0,,Indian,"restaurant, food, point_of_interest, establishment",+91 80874 82359,,,2025-10-18T11:21:31.964566
ChIJ8ZtrJ5uVwjsRCjL_tlwfkeY,Maratha Da Dhaba - Best Pure Veg Restaurant in Pune,"Danka, Goel Ganga Khau Galli, Sinhgad Rd, Manik Baug, Pune",18.4701383,73.8217679,3.8,148.0,,Indian,"restaurant, food, point_of_interest, establishment",+91 77570 22904,,,2025-10-18T11:21:32.264554
ChIJj0C_IwCVwjsRRU7E1c26HWc,Shivratna pure veg शिवरत्न प्युअर व्हेज,"Shivratna pure veg, Road, near by Dnyandeep School, Manaji Nagar, Narhe, Pune",18.4533941,73.8276925,4.2,144.0,,Indian,"restaurant, food, point_of_interest, establishment",+91 97090 95005,,,2025-10-18T11:21:32.879755
ChIJQRi1aPq_wjsRq_NGpGCm-0Y,One Way Foods,"Shop no 1, Chandrama residency, opp to Fire brigade station, Sinhgad Rd, near Sun City, Anand Nagar, Pune",18.4746423,73.8158646,4.1,602.0,2.0,Indian,"restaurant, food, point_of_interest, establishment",+91 95455 80055,http://www.onewayfoods.in/,,2025-10-18T11:21:34.076078
ChIJLaAECzGVwjsRvvRKecb_ALk,La Castle,"FR4H+PMQ, Ambegaon Budruk, Pune",18.4567671,73.829218,3.7,99.0,,Indian,"restaurant, food, point_of_interest, establishment",,http://www.lacastlerooftop.com/,,2025-10-18T11:21:34.529310
ChIJWeeWOVyVwjsROv6to3AniE0,Hotel Brahma Garden,"Survey No 39, Vishal Heights, 2, Sinhgad Rd, Manik Baug, Anand Nagar, Pune",18.4738232,73.8221152,4.0,11451.0,2.0,Indian,"restaurant, food, point_of_interest, establishment",+91 20 2435 8292,http://www.brahmahotels.in/,,2025-10-18T11:21:34.927482
ChIJYVHRtxKVwjsRzSeJ15yoIQc,Pingara Pure Veg,"Pune Bangalore Highway, nr. Navale Bridge, Khedekar Nagar, Narhe, Pune",18.4571347,73.8251672,4.5,723.0,2.0,Indian,"restaurant, food, point_of_interest, establishment",+91 77579 12669,,,2025-10-18T11:21:35.250671
ChIJ2UGM4-uVwjsR-8PMkBFyVXk,SAMRIDDHI By KD's Family Restaurant,"Shop No 10 11, Capital Building, Grand View 7, Pune",18.4607574,73.832276,4.6,37.0,,Indian,"store, restaurant, food, point_of_interest, establishment",+91 99990 01688,https://magicpin.in/Pune/Dhankawadi/Restaurant/Samriddhi-By-KdS-Family-Restaurant/store/1551208/?utm_source=gbp,,2025-10-18T11:21:35.552434
ChIJ3aeslaiVwjsR_ZxVAnfRexc,HOTEL ZAIKA DARBAR,"Shop no 7, Suvarna appartment, near Indian Bank, Kudale Baug, Vadgaon Budruk, Pune",18.4607303,73.8242364,3.7,94.0,,Indian,"restaurant, food, point_of_interest, establishment",+91 75177 47676,,,2025-10-18T11:21:35.887995
ChIJm0sTFACVwjsRD2K-OuxvZvw,Rushi's Cafe,"FR8P+2M5, Ambegaon Budruk, Pune",18.4650178,73.836725,4.8,12.0,,Indian,"restaurant, food, point_of_interest, establishment",+91 90110 89489,,,2025-10-18T11:21:36.165995
ChIJL9MOgFeVwjsROO8JMVoj7nc,"Naadbramha Idli - Sinhgad Road,","Shop no -5, Apartment, Anudatta Commercial Complex, Sinhgad Rd, Wadgaon Budruk, Narhe, Pune",18.4643597,73.8153016,4.3,560.0,,Indian,"lodging, restaurant, food, point_of_interest, establishment",+91 90670 09822,https://naadbramha.com/,,2025-10-18T11:21:36.559096
ChIJn0HjWgCVwjsR2RpisNDmOEA,Bangalore Canteen Sinhagad Road,"Shop no.2, Ganga Bhagyoday, Sinhgad Rd, Niranjan Park, Anand Nagar, Pune",18.4702288,73.8209561,3.5,43.0,,Indian,"restaurant, food, point_of_interest, establishment",,,,2025-10-18T11:21:36.865994
ChIJh-WvkuqVwjsRjgiBkN5Wk6o,Hotel Dawat,"Kudale Baug, Vadgaon Budruk, Pune",18.4621818,73.8213336,3.9,928.0,,Indian,"restaurant, food, point_of_interest, establishment",,https://daawatrestaurant.org/,,2025-10-18T11:21:37.184999
ChIJXbck0E6VwjsRwFzad99qJAc,Relax Dhaba,"Vadgaon Budruk, Pune",18.4650878,73.83377639999999,3.5,211.0,,Indian,"restaurant, food, point_of_interest, establishment",+91 99700 85034,,,2025-10-18T11:21:37.586512
ChIJTUPavF6VwjsRJiub1UadrZg,New Kalyan Bhel,"Shop 8, Ground Floor, Aruna Apartment, Sinhgad Rd, Varshanand Society, Anand Nagar, Pune",18.475836,73.82300699999999,3.9,1452.0,2.0,Indian,"cafe, store, restaurant, food, point_of_interest, establishment",+91 98224 00444,,,2025-10-18T11:21:37.912984
ChIJuTi1FNCVwjsRm5Qtld984yw,Mehfil India,"Shop No.1, Lilai Building, PMC Water Tank, Wadgaon Bk, Pune",18.4649463,73.83311119999999,4.1,21.0,,Indian,"restaurant, point_of_interest, food, establishment",+91 98601 94242,,,2025-10-18T11:21:38.206979
ChIJIyZwA1CVwjsR0eODGyLQ-xw,Meenakshi garden veg nonveg restaurant ️,"Sinhagad collage near vadgaon budruk, near meenakshi Puram, society, Pune",18.4699209,73.8304684,3.7,1269.0,2.0,Indian,"restaurant, point_of_interest, food, establishment",+91 93706 00085,,,2025-10-18T11:21:38.515909
ChIJDYswEkKVwjsRshmORvnCJpQ,Chandani Garden,"Sinhagad Rd, Ambegaon Budruk, 58, Service Rd, Dangat Patil Nagar, Kudale Baug, Vadgaon Budruk, Pune",18.4643429,73.81929629999999,3.9,623.0,2.0,Indian,"bar, restaurant, point_of_interest, food, establishment",,,,2025-10-18T11:21:38.810119
ChIJDWISUA-VwjsREYpCTMUC5iI,"Ashirwad Hotel, Navale Bridge","Samartha Nagar, near Ashirwad Hotel, Vadgaon Budruk, Pune",18.4602667,73.8218027,4.2,62.0,,Indian,"restaurant, point_of_interest, food, establishment",+91 89999 03424,,,2025-10-18T11:21:39.217695
ChIJe6NjfgCVwjsR9xkBfda8IPo,Astha Veg Platter,"Bk, Sinhgad Institute Rd, opp. Bank of India (Sou. Venutai chavan Polytechnic Sihivsrushti, Ambegaon Budruk, Pune",18.4622283,73.8362906,3.9,18.0,,Indian,"restaurant, point_of_interest, food, establishment",,,,2025-10-18T11:21:39.629483
ChIJO65ErjGVwjsRHFSD_Ad7xCk,BOX8 - India's Largest Desi Meals Brand,"1st Floor, Shop No. 10s &11s, No.34, INGALE EMPIRE, Zeal College Rd, near Bhairavnath Mandir, Narhe, Pune",18.4478931,73.8287193,3.7,138.0,2.0,Indian,"restaurant, point_of_interest, food, establishment",,https://box8.in/,,2025-10-18T11:21:40.039564
ChIJEchfCUeVwjsRJCfBpS7DY7U,DESAI'S KITCHEN,"Shop No.1 & 2, Bhansali Complex, Survey No. 42/15/13, Building No. D, Sinhgad College Rd, Vadgaon Budruk, Pune",18.4695042,73.83119850000001,4.8,17.0,,Indian,"lodging, restaurant, point_of_interest, food, establishment",+91 80877 51106,,,2025-10-18T11:21:40.324420
ChIJN9U-nC6VwjsRC6Q7WyOrH6c,Dikhawa Dhaba Veg and Non Veg,"Ground Floor, Hotel Deccan Pavillion, Navale Brg, Kudale Baug, Narhe, Pune",18.4594406,73.8252739,4.4,496.0,,Indian,"restaurant, point_of_interest, food, establishment",+91 72929 29704,,,2025-10-18T11:21:40.627622
ChIJpRrNNz6VwjsRACiaowiCGL8,Abhishek’s Kitchen,"FR39+JWM, Dhayari Phata, Pune",18.4540705,73.8197958,4.1,29.0,,Indian,"restaurant, point_of_interest, food, establishment",+91 99223 40412,,,2025-10-18T11:21:40.919420
ChIJ0XNWHsSVwjsRIlIaOPchCEE,Hotel Masala Mantra,"Avinash regency, Bengaluru - Mumbai Hwy, Wadgaon Budruk, Narhe, Pune",18.4610585,73.8211038,3.9,408.0,,Indian,"meal_delivery, restaurant, point_of_interest, food, establishment",+91 90750 93567,,,2025-10-18T11:21:41.196871
ChIJY4fLCZuVwjsRb4cyX0VPhWk,New Madina Restaurant,"Narhe Rd, near Navale Hospital Road, Wadgaon Budruk, Vadgaon Budruk, Pune",18.4570968,73.81876609999999,3.8,36.0,,Indian,"restaurant, point_of_interest, food, establishment",+91 63901 89614,https://www.instagram.com/khatarnak__aashik_5k?igsh=MXI5aDZtOGNyYWF1bA==,,2025-10-18T11:21:41.472857
ChIJbayOA3-VwjsRA_Ci9nn3ojo,Ganga Pure Veg - Rajasthani thali | Gujarati thali | thali | Veg | hotel | restaurant,"Wadgaon Budruk, Narhe, Pune",18.4625949,73.81949949999999,4.2,445.0,,Indian,"lodging, restaurant, point_of_interest, food, establishment",+91 96998 36868,,,2025-10-18T11:21:41.780978
ChIJv989_ECVwjsRIPKa0W0cyHQ,HOTEL ASHIRWAD FAMILY GARDEN RESTO - BAR & LODGING,"Near, Mumbai Pune Bypass Rd Flyover, Wadgaon Budruk, Narhe, Pune",18.4602955,73.82180369999999,4.0,1372.0,,Indian,"restaurant, point_of_interest, food, establishment",+91 72639 32529,https://ashirwadgarden.com/,,2025-10-18T11:21:42.046174
ChIJJR7n0mGVwjsReyCD8IDAKIQ,Hotel Urus,"FR7G+47J, Ghule Nagar, Vadgaon Budruk, Pune",18.4628466,73.8256494,4.7,15.0,,Indian,"restaurant, point_of_interest, food, establishment",,,,2025-10-18T11:21:42.348088
ChIJq8e94FWVwjsRQAe8Yko03Ys,SAAJ FAMILY REST-O-BAR,"Jijai Heights, Sr No 54/2, Police Chaoki Rd, opp. Barbeque Misal, Khedekar Nagar, Narhe, Pune",18.4574236,73.8247962,3.6,65.0,,Indian,"restaurant, point_of_interest, food, establishment",+91 72630 37000,,,2025-10-18T11:21:42.632683
ChIJnSdXvt6VwjsRGrh0NgglY8Y,Mankar Dosa (Goel Ganga),"shop no 13, Goel Ganga, Amrut Ganga High St, opposite Ganesh Bhel & Chaat, Niranjan Park, Anand Nagar, Pune",18.4702879,73.82139099999999,3.2,65.0,,Indian,"restaurant, point_of_interest, food, establishment",+91 98502 72711,http://www.mankardosa.com/,,2025-10-18T11:21:42.923082
ChIJrUi4kk-VwjsRVA01uVgO10I,Hotel Rutu gandh,"Shop no 4, Jadhav Nagar, Lane no 6, Vadgaov Bk, Sinhgad Rd, pune,, Pune",18.4684962,73.831026,3.7,230.0,,Indian,"restaurant, point_of_interest, food, establishment",+91 98223 29630,,,2025-10-18T11:21:43.199029
ChIJ3yS3hfKVwjsRbR-Uyd2m_VI,Hotel Rutuja Family Restaurant,"Shop No 3, Rutuja Apt, Narhe Rd, opp. Yamaha Showroom, Wadgaon Budruk, Narhe, Pune",18.4577883,73.8175309,4.7,663.0,,Indian,"restaurant, point_of_interest, food, establishment",+91 84213 63639,,,2025-10-18T11:21:43.943745
ChIJZbEfMQPrwjsRfww08COT_l0,Akshar Brahma Pure Veg,"Shri Vyankatesh Blossoms Building, Shop No.1 near Cosmos Bank, Bharati Vidhyapith, Datta Nagar Rd, Ambegaon Budruk, Pune",18.4528305,73.8510337,4.5,394.0,,Indian,"restaurant, food, point_of_interest, establishment",+91 93718 19099,https://www.facebook.com/aksharbrahmapureveg,,2025-10-18T11:21:50.996904
ChIJ73JdzivrwjsRwtcky9_LPpA,RUPALI'S KITCHEN,"02, Ambegaon Pathar Rd, opp. TORNA SANKUL, near CHINTAMANI PRIME ENGLISH SCH5, Tanaji Nagar, Ambegaon Budruk, Pune",18.4555851,73.8420065,4.9,83.0,,Indian,"restaurant, food, point_of_interest, establishment",+91 78419 88070,,,2025-10-18T11:21:51.275139
ChIJ0Qf18cPrwjsRU9wl6D62tAQ,SA DOSA CAFE (BIBWEWADI),"Soba Saanj Apartment, Sitaram Aabaji Bibwe Path, opp. to bhagali hospital, Shree Sant Eknath Nagar, Padmavati Nagar, Pune",18.4749983,73.858436,4.5,2737.0,1.0,Indian,"restaurant, food, point_of_interest, establishment",+91 98234 44534,http://www.sadosacafe.com/,,2025-10-18T11:21:51.714390
ChIJ_zzDX73rwjsRKwDBjvtBT3Y,Sargam Family Restaurant,"Shop No. 3, Sargam Appartment, 13, Swami Vivekanand Rd, opp. to Canara Bank, Shree Sant Eknath Nagar, Bibwewadi, Pune",18.471343,73.8631347,4.4,380.0,,Indian,"restaurant, food, point_of_interest, establishment",+91 77740 93030,https://magicpin.in/Pune/Bibvewadi/Restaurant/Sargam-Family-Restaurant/store/5c5912/?utm_source=gbp,,2025-10-18T11:21:52.026420
ChIJQ26KIADrwjsRxIPGvz_B8jU,Raamendra The Bangalore Eatery,"Shop no. 3, Hamy Capital, Pune - Satara Rd, Shridharnagar, Chaitanya nagar, Dhankawadi, Pune",18.4622817,73.8578503,4.0,27.0,,Indian,"restaurant, food, point_of_interest, establishment",,,,2025-10-18T11:21:52.354956
ChIJjf-IAHPrwjsR8LspRtsyFEI,Majestic Family Restaurant And Bar,"SHOP NO. 1-4, MAJESTIC CORNER, Trimurti Complex, Tanaji Nagar, Ambegaon, Pune",18.45617,73.8436758,4.4,55.0,,Indian,"restaurant, food, point_of_interest, establishment",,https://misterrao.github.io/majesticrestoandbar/,,2025-10-18T11:21:52.611219
ChIJTTLE4r_qwjsR2oE29UibgdU,Spice Garden,"Purple Plaza Shop No 11 ,Mahalaxmi nagar, Sawmi Vivekanand Road, Road, near State Bank Nagar Co-Operative Housing Society, Bibvewadi, Lake Town Housing Society, Chaitraban, Bibwewadi, Pune",18.4620247,73.8653849,4.1,1868.0,2.0,Indian,"restaurant, food, point_of_interest, establishment",+91 20 2420 4855,https://gardenrestaurant.org/,,2025-10-18T11:21:52.899233
ChIJ39ViE9jrwjsR6aQ6T_H73wk,Shrinath Misal & Pure veg restaurant,"01FV25+33X, Pune - Bengaluru Hwy, Katraj, Pune",18.4502991,73.85779819999999,4.3,14.0,,Indian,"restaurant, food, point_of_interest, establishment",+91 89759 69231,https://id.vyaparify.com/pure-veg-and-south-indin,,2025-10-18T11:21:53.188901
ChIJrUtQfcjqwjsReAXV1-sQTmo,Bedi's Naan House,"D-302, Medical College Rd, Chandrabhaga Nagar, Dhankawadi, Pune",18.4572836,73.85274799999999,3.6,396.0,,Indian,"restaurant, food, point_of_interest, establishment",+91 88884 46677,,,2025-10-18T11:21:53.473772
ChIJ3zlgu5brwjsRvZeFx6jvcUU,Ghevar Thali | Best Thali Restaurant in Pune,"Tiranga Chouk, LG 16, Panache Mall, Datta Nagar Rd, Shriram Nagar, Katraj, Pune",18.4519474,73.8517786,4.6,5840.0,2.0,Indian,"restaurant, food, point_of_interest, establishment",+91 70300 06477,http://www.ghevarthali.com/,,2025-10-18T11:21:53.745318
ChIJfUR17_frwjsRm5Qb86-JTE8,Bibwewadi pune,"FV96+7XR, Lower Bibwewadi, Lower Indira Nagar, Bibwewadi, Pune",18.4682279,73.8623886,4.6,19.0,,Indian,"restaurant, food, point_of_interest, establishment",,,,2025-10-18T11:21:54.127316
ChIJc6iIFiHrwjsRKFtBWh4Qm0A,REDDY'S BIRYANI,"SrNo 34/4, Siddhi Vinayak society Society, opposite of Mohan Nagar, Tanaje Nagar, Mohan Nagar, Dhankawadi, Pune",18.4602093,73.8499272,4.2,771.0,1.0,Indian,"restaurant, food, point_of_interest, establishment",+91 81492 20393,https://youtu.be/XowGCQ1wfvl,,2025-10-18T11:21:54.387507
ChIJxTw1QfKVwjsRGTE_bO6GKGA,'Masa'hari Kitchen Katraj,"Shop No 17, Bharati Vidyapeeth, Venkateshwara Tower, Omkar Swarup Rd, near Ichhapurti Ganesh Mandir, Chandrabhaga Nagar, Katraj, Pune",18.4552928,73.8506819,4.3,656.0,,Indian,"restaurant, food, point_of_interest, establishment",+91 98813 33399,,,2025-10-18T11:21:54.685524
ChIJl2bWlLnqwjsRYM2f6XZNDIE,Shivam Veg Restaurant,"FV84+23C, Dhankawadi Rd, Opp. Dhankawadi Post Office, Girinagar Society, Anant Nagar, Kala Nagar, Dhankawadi, Pune",18.4650694,73.8551454,3.9,1432.0,2.0,Indian,"restaurant, food, point_of_interest, establishment",+91 20 2436 6472,,,2025-10-18T11:21:54.998729
ChIJffEo_8jqwjsRW9c1hF3HteQ,Shree Vinayaka Snacks Centre,"Phale corner, Trimurti square, Shop no.2,pramod residency, Medical College Rd, Katraj, Pune",18.4570047,73.850796,4.1,63.0,,Indian,"restaurant, food, point_of_interest, establishment",,,,2025-10-18T11:21:55.309351
ChIJv8sHNhDrwjsRsAZPkNhf96M,Amritsari Dhaba (Pure Veg Punjabi Food),"Showroom No 1, Bharti Vihar, near BHARATI VIDYAPEETH COLLEGE OF ENGINEERING, Chandrabhaga Nagar, Dhankawadi, Pune",18.457381,73.8530718,3.9,482.0,,Indian,"restaurant, food, point_of_interest, establishment",+91 70314 46677,,,2025-10-18T11:21:55.693840
ChIJDy5bAzLrwjsRDccN-amoAhg,Maitri Veg,"BRT, Nagina Apartment, Bus Stop, Pune - Satara Rd, Sahakar Nagar, Padmavati Nagar, Pune",18.475165,73.8559667,4.2,656.0,2.0,Indian,"restaurant, food, point_of_interest, establishment",+91 94219 41112,,,2025-10-18T11:21:56.015285
ChIJmx57w6LrwjsRBAoWRt5YZBI,Giriraj Pure Veg,"no 31, Trimurti Complex , Beside WS Bakers, Pune-Satara Road, Shop No.16 Survey No, Dhankawadi, Pune",18.4627846,73.85842629999999,4.0,167.0,,Indian,"restaurant, food, point_of_interest, establishment",+91 99756 51212,,,2025-10-18T11:21:56.335740
ChIJxy2y48jqwjsR0-pVE-yKMzU,"Naadbramha Dosa Idli - Trimurti Chowk, Bharati Vidyapeeth, Katraj","Chowk, Chandrabhaga Nagar Rd, opp. Icchapurti Ganesh, near trimurti, Chandrabhaga Nagar, Katraj, Pune",18.456416,73.85103269999999,4.1,3044.0,,Indian,"lodging, restaurant, food, point_of_interest, establishment",+91 86980 64090,https://naadbramha.com/,,2025-10-18T11:21:56.612021
ChIJvz7cuFzrwjsRrzwyzORAcm0,Prarambh Biryani,"Shop No.3, Nilgiri Chowk, below Jijau Abhyasika, near Alpha Creation, Bajirao Nagar, Ambegaon Pathar, Pune",18.4559003,73.8437751,5.0,31.0,,Indian,"restaurant, food, point_of_interest, establishment",+91 99220 72020,,,2025-10-18T11:21:56.892510
ChIJ49aOT7nqwjsRjoC-Rs1rxyY,Shree narayan khaman and sweets balajinagar,"Shop no, rajvihar society, 1, Pawar hospital road, near Ellora Palace, New Rajgad Society, Panchod, Balaji Nagar, Pune",18.4658638,73.85887950000001,4.2,1159.0,1.0,Indian,"restaurant, food, point_of_interest, establishment",+91 73855 22221,,,2025-10-18T11:21:57.217653
ChIJtTj668TqwjsRdOGzIbzO760,Katraj Junction Family Restaurant,"84 Pune-Satara Road 46, Anupam Arcade, Pune - Bangalore Highway, Katraj,, Pune",18.4510541,73.85775319999999,4.0,1119.0,2.0,Indian,"bar, restaurant, food, point_of_interest, establishment",+91 20 2436 9796,,,2025-10-18T11:21:57.493905
ChIJHROveTjrwjsRMTi0lXGMupM,Punjabi combo paratha house,"Shop no. 12, Bharti Vihar, Sr.no.22, Bharti Vidyapeeth, Dhankawadi Rd, back gate, Pune",18.4573583,73.8530662,3.6,271.0,,Indian,"restaurant, food, point_of_interest, establishment",+91 98605 90443,,,2025-10-18T11:21:57.798599
ChIJuXg6a7nqwjsRbbiilNIjiSU,Honey Restaurant and Permit Room,"FV85+344, Nityanand Society, New Nurses Town Co Operative Society, Dhankawadi, Pune",18.4651419,73.8578211,3.8,290.0,,Indian,"bar, restaurant, food, point_of_interest, establishment",+91 20 2437 3215,,,2025-10-18T11:21:58.040891
ChIJvfDzDBTrwjsR9zRBJnSWFpE,Sumedyam,"FR8X+XMH, Sahyadri Nagar Rd, Sahyadri Nagar, Ramchandra Nagar, Jyoti Park, Dhankawadi, Pune",18.4674189,73.8491678,5.0,2.0,,Indian,"restaurant, food, point_of_interest, establishment",,,,2025-10-18T11:21:58.350097
ChIJkXeFGLnqwjsRsUF8gKErOCE,Jai Bhavani Restaurant,"25/1,1st Floor, Kapila Building, Pune - Satara Rd, near HDFC bank, Shridharnagar, Vivek Nagar, Dhankawadi, Pune",18.4633359,73.85853190000002,3.8,816.0,2.0,Indian,"bar, restaurant, food, point_of_interest, establishment",+91 99355 87474,,,2025-10-18T11:21:58.619363
ChIJvZQyAE_rwjsR8jBIJI6N7QI,Sugran Biryani (cloud Kitchen),"Flat No.102, Swagat Residency, near Rajaram Gas Agency, Shriram Nagar, Katraj, Pune",18.4522842,73.8528168,5.0,28.0,,Indian,"restaurant, food, point_of_interest, establishment",+91 91455 89090,http://www.sugaranbiryani.com/,,2025-10-18T11:21:58.873024
ChIJyQs21CrrwjsR2gmMgLYg1-A,Jaffs Global Cuisine Restaurant,"S.No 1,2, Dnyaneshwar Society, 3 14/1A, opp. Shankar Maharaj Math, Shree Sant Eknath Nagar, Dhankawadi, Pune",18.4726772,73.8561534,4.2,41.0,,Indian,"restaurant, food, point_of_interest, establishment",+91 90281 40011,,,2025-10-18T11:21:59.190287
ChIJy5wlQgCVwjsR5dwJ_pkvqpg,Akshay Biryanis,"Shop No 1, FR7M+XF, Near, Sinhgad Rd, Campous, Vadgaon Budruk, Pune",18.4648394,73.83360760000001,4.1,39.0,,Indian,"store, restaurant, food, point_of_interest, establishment",+91 84848 48450,https://www.instagram.com/hotel_akshay_biryani_02,,2025-10-18T11:21:59.604449
ChIJfd0fNCyVwjsRVml3iytnCHc,Hotel Shetmala muttan Bhakri,"Shop No 1, opposite Swaminarayan, Ambegaon Budruk, Pune",18.4440396,73.8374278,4.2,360.0,,Indian,"restaurant, food, point_of_interest, establishment",+91 88051 72121,,,2025-10-18T11:22:00.024235
ChIJl9T8zC2VwjsRSk7ECIuyb7M,Village Resto,"Village Resto S, 100/4, Mumbai-Banglore Service Road, opp. Swaminarayan Mandir Road, Ambegaon Khurd, Pune",18.4451746,73.8365481,3.7,792.0,2.0,Indian,"restaurant, food, point_of_interest, establishment",+91 94238 68027,https://villagerestaurant.org/,,2025-10-18T11:22:00.315980
ChIJ01p-ZQCVwjsRQbk9nboJqBM,Food of Indians,"FR9J+X65, Meenakshipuram, Vadgaon Budruk, Pune",18.4698758,73.83060069999999,4.8,4.0,,Indian,"restaurant, food, point_of_interest, establishment",,,,2025-10-18T11:22:00.634913
ChIJ3cSoi47rwjsRAVsZ6U1iooA,The Majestic Biryani House,"Cambridge school, bharti vidyapeeth,Trimurti Chowk, near, Pune",18.4580677,73.8497007,3.6,45.0,,Indian,"restaurant, food, point_of_interest, establishment",,,,2025-10-18T11:22:00.952900
ChIJb7Jgxf_rwjsRlkCCPk9BhJI,Rajeshahi biryani dhankawdi,"Girinagar Society, Anant Nagar, Kala Nagar, Dhankawadi, Dhankawdi, Pune",18.4647741,73.8560607,4.1,63.0,,Indian,"restaurant, food, point_of_interest, establishment",+91 77559 11121,,,2025-10-18T11:22:01.243850
ChIJrXJ8z1jqwjsRBqZTTxbgyZs,Srinidhi Veg,"A Wing, Survey 25, Shop 7&8, Lower Ground Floor, Nirmaann Estrella, Kondhwa, Pune",18.4573748,73.891167,4.2,3830.0,2.0,Indian,"restaurant, food, point_of_interest, establishment",+91 20 2693 0444,,,2025-10-18T11:22:08.004587
ChIJ_yE7RRnrwjsROeeyJ1Q94kg,Flavours of Dilli 6,"11, Kausar Baugh Rd, Kausar Baugh, Kondhwa, Pune",18.4716035,73.8933009,4.0,22.0,,Indian,"restaurant, food, point_of_interest, establishment",+91 84595 51478,,,2025-10-18T11:22:08.341183
ChIJxUufKQDrwjsR12ggCYKo2fM,Grand Darbar Kausarbaugh,"Kausar Baugh, Kondhwa, Pune",18.4719998,73.8914339,4.2,402.0,,Indian,"restaurant, food, point_of_interest, establishment",+91 75591 20848,https://id.vyaparify.com/grand-darbar-multi-cuisine-restaurant,,2025-10-18T11:22:08.619278
ChIJ_9gJomPqwjsRyg8EsKCUwSE,Madinah Restaurant,"Kausar Baugh Rd, Near Kausar Baug Masjid, Kausar Baugh, Kondhwa, Pune",18.4720496,73.8933617,3.9,5490.0,1.0,Indian,"restaurant, food, point_of_interest, establishment",+91 89283 85828,http://www.madinahmart.in/,,2025-10-18T11:22:08.900743
ChIJCdKkhvLqwjsR3dVOicYRlzQ,Gokul Pure Veg,"Opp, Gangadham - Shatrunjay Rd, Shanti Nagar Society, Kondhwa Budruk, Pune",18.4598908,73.8777492,4.0,4234.0,2.0,Indian,"restaurant, food, point_of_interest, establishment",+91 90670 30534,https://mygokul.com/,,2025-10-18T11:22:09.202898
ChIJgeGepuvrwjsR9PTV29pxrns,Khan e Khas family Restaurant,"NIBM Galli Number 2, near Sana hospital, Kausar Baugh, Kondhwa, Pune",18.4737068,73.89115559999999,4.1,1962.0,,Indian,"restaurant, food, point_of_interest, establishment",+91 96048 61076,,,2025-10-18T11:22:09.464740
ChIJFRMoPl_rwjsRCEL3SFK8OQs,DELHI ZAIKA HOTEL,"Lane No. 4, Bhagyoday Nagar Rd, Kondhwa, Pune",18.4710346,73.8869619,4.1,60.0,,Indian,"restaurant, food, point_of_interest, establishment",+91 98217 60660,,,2025-10-18T11:22:09.746400
ChIJ_____4vqwjsR3Eu5VUydh-U,Cafe Zam Zam - Veg/Non-Veg,"FVFR+8CW, Kausar Baugh, Kondhwa, Pune",18.4733617,73.8910701,4.0,4080.0,1.0,Indian,"cafe, restaurant, food, point_of_interest, establishment",+91 20 2683 6912,,,2025-10-18T11:22:10.033914
ChIJyd7i4PzrwjsRsACKQQ6JrNo,Love & sauté,"Shivshakti Nagar Kakde Vasti, Kondhwa, Pune",18.4647716,73.8778179,4.3,304.0,,Indian,"restaurant, food, point_of_interest, establishment",,http://rapidoffers.in/id/lovesaute,,2025-10-18T11:22:10.312011
ChIJ09km187rwjsRtiTN9u0DWro,The RamaSwamy Cafe,"Gagan Signet, 05, near Isckon Temple, Pune",18.4529349,73.8791986,4.2,79.0,,Indian,"restaurant, food, point_of_interest, establishment",+91 80903 80904,,,2025-10-18T11:22:10.588157
ChIJZefsvebBwjsRGr_amSQq5-8,"Mr and Mrs Idly, South Indian Restaurant Gangadham Shatrunjay Road | Opp. Shantinagar","Shop No 6, Rajguruhi Business Hub, road, near Shri Shanti Nagar Society, Kasat Nagar, Kondhwa Budruk, Pune",18.4606429,73.87757289999999,4.5,341.0,,Indian,"meal_delivery, cafe, restaurant, food, point_of_interest, establishment",+91 92268 46232,https://mrandmrsidlypune.com/,,2025-10-18T11:22:10.929028
ChIJVVVlA7vqwjsRXYMDCAsDOF0,Guddan's Rasoi,"Shop No 2, Dining Hall Chowk, Undri Road, Handewadi, S No 26, 1 2, Handewadi Road, near SHIV SHAKTI, Pune",18.4699646,73.8569303,5.0,26.0,,Indian,"restaurant, food, point_of_interest, establishment",+91 90281 20441,,,2025-10-18T11:22:11.270758
ChIJwcYiL33qwjsRMO_tnuLB65w,Tahari House,"Shop no. 2, S R. 14 S K prime building Kausarbaug Society, Kausar Baugh Rd, near Kausarbaug, Pune",18.4737657,73.89351169999999,4.0,1396.0,1.0,Indian,"restaurant, food, point_of_interest, establishment",+91 98902 35704,,,2025-10-18T11:22:11.554114
ChIJxYU9aQDrwjsR7VkIIF0IlLo,North 37 Dhaba,"Shop no. 66, Gangadham - Shatrunjay Rd, Anand Tirth Nagar, Kondhwa Budruk, Pune",18.4541368,73.8790818,4.6,201.0,,Indian,"restaurant, food, point_of_interest, establishment",+91 95799 32199,,,2025-10-18T11:22:11.894877
ChIJ4weihT3rwjsRPooSL7u8a7E,Desi Chulhaa,"Kausar Baugh, Kondhwa, Pune",18.4718551,73.89345190000002,4.2,423.0,2.0,Indian,"restaurant, food, point_of_interest, establishment",+91 84595 51478,,,2025-10-18T11:22:12.297722
ChIJtQlFcIDrwjsRHWHZz8nrvkk,Aarvi's Pure Veg The Cuisine of Hastinapur,"Shop No 1, near Sheetal Petrol Pump, Meeta Nagar, Kondhwa, Pune",18.4694484,73.8887211,4.6,752.0,,Indian,"restaurant, food, point_of_interest, establishment",+91 84818 19192,,,2025-10-18T11:22:12.619634
ChIJWy-2dPjrwjsRt7x2JYQ3SSI,Arabian Mandi,"no. 2, Masjid, Gate, Galaxy Premium, Shop No. 1, opposite Kausar Baug, next to Star Cafe, Kausar Baugh, Kondhwa, Pune",18.4727759,73.8936301,4.2,2085.0,2.0,Indian,"restaurant, food, point_of_interest, establishment",+91 75583 00932,https://www.arabianmandi.com/,,2025-10-18T11:22:12.900082
ChIJJxkBZIrrwjsRU2gk7bEPd-g,Latur Tahari House,"Shop no. 1 & 2, S.Y Prime Society, Kausar Baugh Rd, Kausar Baugh, Kondhwa, Pune",18.4724524,73.8911109,4.3,652.0,,Indian,"lodging, restaurant, food, point_of_interest, establishment",+91 78228 59565,,,2025-10-18T11:22:13.168798
ChIJF-UQaoLrwjsRyLNwgtsrFN8,Persian Spice Family Restaurant,"Kausar Baugh, Kondhwa, Pune",18.471434,73.8936271,4.6,21.0,,Indian,"restaurant, food, point_of_interest, establishment",,,,2025-10-18T11:22:13.421420
ChIJCwlO6uLrwjsR2S_c-LSgx9g,"Naadbramha Idli- KK Market Dhankawadi Bibvewadi, Pune","KK Market Rd, opp. KK Market, Punyai Nagar, Panchod, Mangawadi, Pune",18.4686038,73.8596383,4.6,847.0,,Indian,"lodging, restaurant, food, point_of_interest, establishment",+91 75585 92025,https://naadbramha.com/,,2025-10-18T11:22:13.716171
ChIJZRVdI-3qwjsRxss5-fOPUIw,Hyderabad Biryani House,"Sr No. 658/7, Shivray Nagar, Kondhwa Main Rd, Upper Indira Nagar, Bibwewadi, Pune",18.4610427,73.87666279999999,4.0,24.0,,Indian,"restaurant, food, point_of_interest, establishment",+91 72761 16613,,,2025-10-18T11:22:14.014161
ChIJF3Te-2LqwjsRKMW6acvv7kc,Agra Restaurant,"13, NIBM Galli Number 2, Kausar Baugh, Kondhwa, Pune",18.472494,73.89145429999999,4.0,2564.0,2.0,Indian,"restaurant, food, point_of_interest, establishment",+91 98906 61283,,,2025-10-18T11:22:14.294278
ChIJoz1fkV_qwjsROaKd2i5FXFY,Sodhi Naan House,"FV5R+27G, Kondhwa Main Rd, Ambedkar Nagar, Kondhwa, Pune",18.4575714,73.89071299999999,4.1,400.0,,Indian,"restaurant, food, point_of_interest, establishment",+91 86686 33768,,,2025-10-18T11:22:14.652320
ChIJFStu57jqwjsRWx_uJR0a-Hs,Hotel Urmil,"FV85+W3C, Pune - Bengaluru Hwy, New Nurses Town Co Operative Society, Dhankawadi, Pune",18.4673147,73.85764139999999,3.9,114.0,,Indian,"restaurant, food, point_of_interest, establishment",+91 79752 00744,,,2025-10-18T11:22:14.938022
ChIJvyp_xGLqwjsRHwjDHIGTiuM,Sharif Kebabs & Curry,"47, NIBM Galli Number 2, Kausar Baugh, Kondhwa, Pune",18.4740766,73.89109289999999,3.8,1762.0,2.0,Indian,"restaurant, food, point_of_interest, establishment",+91 98229 57862,,,2025-10-18T11:22:15.282044
ChIJw_sphpLrwjsR-JXgr_K9_3g,BKC Biryani Kebab and Curries,Parge Nagar,18.4672485,73.8909358,3.7,27.0,,Indian,"restaurant, food, point_of_interest, establishment",,,,2025-10-18T11:22:15.619464
ChIJ085c43rrwjsRRRtzyFfVnpI,Sirimirii Restaurant & Banquets,"5&6 floor, Katraj - Kondhwa Rd, above Easy Living the furniture company, next to shankeshwar Darshan society, Yashodhan Society, Kapil Nagar, Kondhwa Budruk, Pune",18.4580891,73.8823479,4.5,462.0,,Indian,"restaurant, food, point_of_interest, establishment",+91 77700 45499,https://www.instagram.com/sirimiriirestaurant?igsh=MWV6cTRoNjl1NTl2Mw==,,2025-10-18T11:22:15.928010
ChIJj8_wnGnrwjsRJ9IpFzzKVlI,Hotel Rajthat,"Shop No.2, Sun Radiant Block-B, Yewalewadi Rd, Kondhwa Budruk, Pune",18.4482802,73.8921876,4.0,124.0,,Indian,"restaurant, food, point_of_interest, establishment",,,,2025-10-18T11:22:16.248213
ChIJqfT6hgnrwjsRo3mxCDod-UM,Garib Nawaz Family Restaurant,"11/A/10, Kondhwa Byp, Rd, Kausar Baugh, Kondhwa, Pune",18.4723525,73.891425,4.5,37.0,,Indian,"restaurant, point_of_interest, food, establishment",+91 98340 78655,,,2025-10-18T11:22:16.524678
ChIJPW0FnFLrwjsRqRbZXenlKF4,SHAHI DARBAR - KAUSAR BAUG,"Ground Floor, Building D-68, Masjid Gate. 2, opp. Kausar Baugh, Kausar Baugh, Kondhwa, Pune",18.4731676,73.8935822,4.0,119.0,,Indian,"restaurant, point_of_interest, food, establishment",+91 70201 76700,,,2025-10-18T11:22:16.913698
ChIJTxXSGtHrwjsRF_XZpdoPhL8,Balaji South Indian Foods,"FV4R+WW7, Punyadham Ashram Rd, Tyni Audyogic Wasahat, Kondhwa, Pune",18.4572896,73.8922975,5.0,2.0,,Indian,"restaurant, point_of_interest, food, establishment",,,,2025-10-18T11:22:17.325191
ChIJlfIRidXrwjsR5F9p3Ela_aE,Raju dosawala,"SR NO 657/8, Shelke vasti, nr. DTC, Upper Indira Nagar, Bibwewadi, Pune",18.4649965,73.8765671,4.8,14.0,,Indian,"restaurant, point_of_interest, food, establishment",,,,2025-10-18T11:22:17.724390
ChIJmbvT-1HrwjsRoLsxHvH3mS4,Mulashi Gavraan,"Kondhwa Budruk Sr. No. 64, Society, opposite of Nirmaan Pooram, Pune",18.4575869,73.8822057,4.5,116.0,,Indian,"restaurant, point_of_interest, food, establishment",+91 98905 07012,,,2025-10-18T11:22:18.133518
ChIJE-_6pLbqwjsRDd-llAJK56w,Relax Corner Pure Veg Restaurant,"Shop No B6, Soba Savera Complex, Bus Stop, behind Bibwewadi, Jedhe Nagar, Shree Sant Eknath Nagar, Padmavati Nagar, Pune",18.4752217,73.8616432,3.7,835.0,2.0,Indian,"restaurant, point_of_interest, food, establishment",+91 96577 41643,,,2025-10-18T11:22:18.441890
ChIJ_ZfMNdrrwjsRd29fs3DotfM,Hotel Bhigwan Machchhi Special,"Khandoba mandir road, opp. Jedhe vajan kata, Katraj - Kondhwa Rd, near datta tredars, Pune",18.4506884,73.87417359999999,4.5,115.0,,Indian,"restaurant, point_of_interest, food, establishment",+91 99705 91766,,,2025-10-18T11:22:18.774561
ChIJoWIUPfLrwjsRjA9nXBiKYAg,Delhi Darbar Biryani,"FV6G+C4C, Shivrai Nagar, Upper Kondhwa Rd, Kasat Nagar, Kondhwa Budruk, Pune",18.4610953,73.8752724,4.0,657.0,,Indian,"restaurant, point_of_interest, food, establishment",+91 88875 29908,,,2025-10-18T11:22:19.071022
ChIJLzMs-uXrwjsRqV7zuUg7EI0,BOX8 - India's Largest Desi Meals Brand,"Ground Floor, Dyandeep Complex, Jai Bhavani Complex, Undri - Hadapsar Rd, Nyati County, Mohammed Wadi, Pune",18.4622842,73.91395589999999,4.9,344.0,,Indian,"restaurant, food, point_of_interest, establishment",,https://eatclub.in/,,2025-10-18T11:22:26.601208
ChIJ53YmcKzrwjsRcZHFwiJnDd4,Mamata's South Kitchen (Authentic Davanagere Butter Dosa & Idly),"Kad Nagar, Undri, Pune",18.4610887,73.91315399999999,4.6,126.0,,Indian,"restaurant, food, point_of_interest, establishment",+91 87479 44084,,,2025-10-18T11:22:27.043513
ChIJ3c_KTQDrwjsR0QnjLK_3WR0,Ye Bihari Family Restaurant,"Kad Nagar, Undri, Pune",18.4572403,73.912522,4.9,83.0,,Indian,"restaurant, food, point_of_interest, establishment",,https://www.facebook.com/profile.php?id=61581360715926,,2025-10-18T11:22:27.359598
ChIJ2XqtmW3rwjsRfNjOxaBz53Y,The Sea Secret - NIBM,"First Floor, Royale Heritage Mall, above Irani Cafe NIBM, Dorabjee Paradise, Mohammed Wadi, Pune",18.4672592,73.90591380000001,4.7,664.0,,Indian,"restaurant, food, point_of_interest, establishment",+91 85301 41444,,,2025-10-18T11:22:27.666300
ChIJXaB8DM_rwjsRyf2ynHIjKK0,Loft On The Top,"Floor no-6, Clover Metropole, Clover Highlands Undri Rd, Kondhwa, Pune",18.4727389,73.8994776,4.2,586.0,,Indian,"bar, cafe, restaurant, food, point_of_interest, establishment",+91 72629 35252,http://loftonthetop.com/,,2025-10-18T11:22:27.970313
ChIJtSXzbgDrwjsR3gF1IiBE5CY,Delicious South,"Shop No. 106, Marvel Sangria, NIBM Undri Road, Mohammed Wadi, Pune",18.463448,73.90733999999999,4.6,22.0,,Indian,"restaurant, food, point_of_interest, establishment",,,,2025-10-18T11:22:28.275307
ChIJ3cWhP6XrwjsRVl7rDvnlk_0,Naadbramha idli - Mohammed Wadi,"Shop no 3, Crystal park, Society, opposite Desai eye hospital, Mahadev Wadi, Mohammed Wadi, Pune",18.472672,73.92325509999999,4.8,163.0,,Indian,"restaurant, food, point_of_interest, establishment",+91 72197 02998,https://naadbramha.com/,,2025-10-18T11:22:28.587910
ChIJj4M8uWfrwjsRcETsHFxjvf4,South Foodies Corner,"Abnave Nagar, Undri, Undri, Pune",18.4525633,73.9227509,3.9,273.0,,Indian,"restaurant, food, point_of_interest, establishment",+91 81491 48156,,,2025-10-18T11:22:28.911139
ChIJ56d0gzjqwjsRzl6HglpoWuE,The Spices,"FW46+WXW, next to Bishop's School, Hole Vasti, Undri, Pune",18.4573078,73.91298669999999,3.9,2480.0,2.0,Indian,"restaurant, bar, food, point_of_interest, establishment",+91 77750 03355,,,2025-10-18T11:22:29.212003
ChIJ0WRCIj3rwjsRQS8-zvJmcDE,BOX8 - India's Largest Desi Meals Brand,"Shop No. 06,07, 08& 09, S.No.60/2/2-60/3,Upper Ground Floor, Sky Pavilion, above Reliance Smart, Atur Nagar, Undri, Pune",18.4509,73.914,4.7,109.0,,Indian,"restaurant, food, point_of_interest, establishment",,https://box8.in/,,2025-10-18T11:22:29.531321
ChIJW-NhdunrwjsRgR2iV_vqCCI,KK FLAVOURS OF AMRITSAR,"Undri, NIBM Rd, chowk, Pune",18.4628081,73.91339049999999,4.6,16.0,,Indian,"restaurant, food, point_of_interest, establishment",+91 83696 28944,,,2025-10-18T11:22:29.909798
ChIJRRiqZgDrwjsRc5k6ch_usbs,Grand Shalimar Restaurant and Lawn,"next to RAHEJA VISTAS PHASE-3, near Cloud9, End Of, Mohammed Wadi, Pune",18.4721254,73.9115343,4.7,347.0,,Indian,"restaurant, food, point_of_interest, establishment",,http://www.grandshalimar.com/,,2025-10-18T11:22:30.217945
ChIJ8wd4bH3rwjsRhzeNMqMobDg,Deccan Hills Veg and Non Veg Restaurant,"Handewadi Rd, Bandushet Abnave Nagar, Undri, Pune",18.4526455,73.9225889,4.2,458.0,,Indian,"restaurant, food, point_of_interest, establishment",,,,2025-10-18T11:22:30.551546
ChIJi8nFH5frwjsRS2D7l42ooQQ,Bedi's Paratha And Naan House,"Shop 4, Aryan Market, NIBM Rd, near ICICI Bank, Hills & Dales, Undri, Pune",18.4628749,73.9133784,3.7,206.0,,Indian,"restaurant, food, point_of_interest, establishment",+91 78758 30133,,,2025-10-18T11:22:30.834685
ChIJR5kAPQDrwjsR-vLz5fN8A3o,Thali Samrat,"FW2C+XVR, Abnave Nagar, Handewadi, Pune",18.4524895,73.9221018,3.5,130.0,,Indian,"restaurant, food, point_of_interest, establishment",,https://samratrestaurant.org/,,2025-10-18T11:22:31.131901
ChIJU7nmJUrrwjsR9vzWIFQJgO0,South Thindi,"Shop#2, next to Delhi Public School, Nyati County, Mohammed Wadi, Pune",18.4649205,73.9230907,3.8,25.0,,Indian,"restaurant, food, point_of_interest, establishment",,,,2025-10-18T11:22:31.435399
ChIJM6EYfBPrwjsRNdLDYpiManU,SHREE BHOG - AUTHENTIC SOUTH INDIAN FOOD,"Shop no 3, Trimurti Villa, opp. H V Desai Eye Hospital, Mahadev Wadi, Mohammed Wadi, Pune",18.4724817,73.9232126,3.7,93.0,,Indian,"restaurant, food, point_of_interest, establishment",+91 70584 39595,,,2025-10-18T11:22:31.732860
ChIJRwNF--brwjsRmZxMea20cWM,Flavours of Andhra,"Shop no. 6, Bizzbay Mall, NIBM Rd, Kondhwa, Pune",18.4693243,73.90017929999999,3.1,32.0,,Indian,"restaurant, food, point_of_interest, establishment",,http://www.flavoursofandhra.com/,,2025-10-18T11:22:32.012983
ChIJbdMobGPrwjsR-Ija1XtX1yI,Bhaj Govindam Pure Veg,"Shop No 1, comercial complex, GAGAN ELA, NIBM Rd, opposite Sanskruti School, Palace Orchard, Mohammed Wadi, Pune",18.4634511,73.90518159999999,4.2,584.0,,Indian,"restaurant, food, point_of_interest, establishment",+91 88066 02354,https://bhaj-govindam-pure-veg.godirekt.in/spark/app/#/mainpage,,2025-10-18T11:22:32.350594
ChIJIStLkMHrwjsRbCfTKL2VoqY,The Biryani Legacy,"Corinthian Club Road , Citadel, Shop no 18 , Next to De' Kettle Cafe, NIBM, Undri - Hadapsar Rd, Palace Orchard, Mohammed Wadi, Pune",18.4626397,73.90283579999999,4.6,36.0,,Indian,"restaurant, food, point_of_interest, establishment",+91 75582 96469,,,2025-10-18T11:22:32.652006
ChIJUVHb0WvrwjsR-ejcJi5CjkI,Apna K.G.N. Caterers,"17, FW56+JJ3, 1, Katraj-Hadapsar Bypass Rd, Kad Nagar, Undri, Pune",18.4590342,73.911615,4.3,40.0,,Indian,"restaurant, food, point_of_interest, establishment",+91 76669 56899,https://magicpin.in/Pune/Undri/Restaurant/Apna-K.G.N.-Caterers/store/3a87a0/?utm_source=gbp,,2025-10-18T11:22:32.931484
ChIJ_QHWZlDqwjsRzJgExNg_71k,Hotel Balaji Veg,"Kondhwa Main Rd, Pisoli, Pune",18.4512159,73.89795289999999,3.9,1000.0,2.0,Indian,"restaurant, food, point_of_interest, establishment",+91 86009 56999,https://balajirestaurant.org/,,2025-10-18T11:22:33.224438
ChIJ22KdUlTrwjsRHDOLXjU6XoU,miyaa ji - Chinese / Mughlai / Indian - Near Tribeca Highstreet,"Shop No 4, Archana, Kohinoor Glory, near Tribeca Highstreet, Mohammed Wadi, Pune",18.4732721,73.9110895,4.9,75.0,,Indian,"restaurant, meal_takeaway, meal_delivery, food, point_of_interest, establishment",+91 70661 10202,https://miyaaji.in/,,2025-10-18T11:22:33.499747
ChIJRWMZc-_rwjsR6YWCRfsjJvQ,South Dine,"Shop No 3, GAGAN ELA, Palace Orchard, Mohammed Wadi, Pune",18.4634992,73.9049686,4.5,8.0,,Indian,"restaurant, food, point_of_interest, establishment",,https://www.southdine.com/,,2025-10-18T11:22:33.826984
ChIJC-Qis4zrwjsRpxvXstPFFHw,Alichi's,"City Center, Shop No:34, Undri, Pune",18.4561318,73.91278609999999,3.9,196.0,,Indian,"restaurant, food, point_of_interest, establishment",+91 91563 35737,,,2025-10-18T11:22:34.099994
ChIJZZqg1C3rwjsR7P2tt_i2hs8,ChinaThindi,"next to Delhi Public School, Nyati County, Mohammed Wadi, Pune",18.4646615,73.9232536,,,,Indian,"restaurant, food, point_of_interest, establishment",,,,2025-10-18T11:22:34.374037
ChIJOXcLYkTrwjsRAwMUa_gNWSk,The Tandoor Junction,"Shop No 1, The Tandoor Junction, Hadapsar Rd, behind Undri City Center Mall, near HDFC Bank, Bellagio, Undri, Pune",18.4558737,73.91268389999999,4.0,21.0,,Indian,"restaurant, meal_takeaway, food, point_of_interest, establishment",+91 98906 90369,https://api.whatsapp.com/send/?phone=919890690369,,2025-10-18T11:22:34.698527
ChIJe6S8YQDrwjsRGBP2aUogu4A,i-kitchen,"FW39+H82, Undri Marg, Nyati County, Undri, Pune",18.4539092,73.9183015,5.0,2.0,,Indian,"restaurant, food, point_of_interest, establishment",,,,2025-10-18T11:22:34.959170
ChIJLXCzwj3qwjsRWVG9LBzOg9k,Pyramisa - The Corinthians,"FW79+VJ4 The Corinthians, Nibm, Kondhwa road, Nyati County, Mohammed Wadi",18.4630113,73.9179808,4.5,68.0,,Indian,"restaurant, food, point_of_interest, establishment",+91 20 2695 2222,,,2025-10-18T11:22:35.270298
ChIJ0Q9VvhbrwjsRzpcX2wZKgYY,T3 Garden Restaurant,"niyti square, T3 Restro, opp. of MAJESTIQUE EURISKA, Mohammed Wadi, Pune",18.4668983,73.92287069999999,3.9,188.0,2.0,Indian,"store, restaurant, food, point_of_interest, establishment",,,,2025-10-18T11:22:35.559117
ChIJu-1rfQDrwjsRQaTuFuN7dLY,SAMBHAR LOADED,"Shop No 13, AVISHKAR PROGRESSIVE PRIMERO, Bellagio, Undri, Pune",18.4546599,73.9140754,5.0,3.0,,Indian,"restaurant, food, point_of_interest, establishment",+91 83038 55477,,,2025-10-18T11:22:35.846693
ChIJEV6eUwDrwjsRhrhqLLnIBjY,Shree Maharaja Restaurant- Pure Veg,"Block-E, Arv Royale, Indira Nagar, Undri, Autadwadi Handewadi, Pune",18.4681116,73.9336971,4.3,38.0,,Indian,"restaurant, food, point_of_interest, establishment",+91 77568 92741,,,2025-10-18T11:22:42.639673
ChIJjaE1VufrwjsR6WqrZkEAcyo,Shree Samartha Pure Veg,"Handewadi, chowk, Katraj Bypass Rd, Pune",18.4555015,73.9324407,3.4,66.0,,Indian,"restaurant, food, point_of_interest, establishment",+91 77739 15161,,,2025-10-18T11:22:42.931948
ChIJVSdrc57rwjsR1JM8ud7Jt4Q,Janki Rasoi,"Undri - Hadapsar Rd, Mahadev Wadi, Mohammed Wadi, Pune",18.4726048,73.9232753,4.7,57.0,,Indian,"restaurant, food, point_of_interest, establishment",+91 73871 10428,,,2025-10-18T11:22:43.215744
ChIJez5Fk07rwjsRpp45K42vSns,Sayali Pure Veg,"Shop no, 104, Handewadi Rd, opp. Green City, Satav Nagar, Hadapsar, Pune",18.4749446,73.931422,4.1,60.0,,Indian,"restaurant, food, point_of_interest, establishment",+91 97629 59546,http://sayalipureveg.dotpe.in/,,2025-10-18T11:22:43.474283
ChIJ15xcpBvrwjsRODhcflwpC8I,Food Earth ®,"Kalash Heights, infront of Vasant Park society, Mohammadwadi, Undri, Pune",18.4607634,73.92521119999999,4.7,55.0,,Indian,"restaurant, food, point_of_interest, establishment",+91 89567 43102,http://foodearth.in/,,2025-10-18T11:22:43.777424
ChIJQ3OxNQDrwjsRYdCthgq4XX8,FOOD JUNCTION,"Ground Floor, Ganga Nivas, near Hotel Sices, Hole Vasti, Undri, Pune",18.4578258,73.9126502,4.9,10.0,,Indian,"restaurant, food, point_of_interest, establishment",,,,2025-10-18T11:22:44.050703
ChIJt8ulRZzrwjsR71Xslr6nPEs,Punjab Curry Co.,"S.no.4/1B/22, opposite Delhi Public school, Mohammed Wadi, Pune",18.4646681,73.92298020000001,4.5,94.0,,Indian,"restaurant, food, point_of_interest, establishment",+91 95603 08767,,,2025-10-18T11:22:44.304695
ChIJu7PprBfrwjsRe6Mzw7PUaJQ,BOX8- Desi Meals | Order Food Online,"Shop No-3, VERTICAL ALCINIA, SR NO-12/8, opposite Corianthan Club, Laxmi Nagar, Undri, Pune",18.4664867,73.9183012,4.4,78.0,2.0,Indian,"restaurant, food, point_of_interest, establishment",,https://box8.in/?utm_source=map&utm_medium=business-location,,2025-10-18T11:22:44.610326
ChIJz9V_dADrwjsR8Anu65GOfTE,JHANAK Multi-Cuisine Family Restaurant,"Shop No 03, Kanifnath Building, Punjab National Bank, 2Nd Floor Kanifnath Building Undri Chowk, opposite Pune, Pune",18.4505912,73.9159992,3.9,15.0,,Indian,"restaurant, food, point_of_interest, establishment",,,,2025-10-18T11:22:44.930038
ChIJMT__DgDrwjsR-1Ip-BM2U0M,Swati's Biryani House,"Green City 2 Block-K, Satar Nagar, Hadapsar, Pune",18.4762059,73.9345759,4.9,40.0,,Indian,"restaurant, food, point_of_interest, establishment",,,,2025-10-18T11:22:45.190895
ChIJ8wNtWnvpwjsRz9zQwMG3ygQ,Hotel Shauryawada,"FW4J+2JC, NH65, Katraj Bypass Rd, opposite Hande Lawns, Handewadi, Pune",18.4537696,73.9300107,4.0,10636.0,2.0,Indian,"restaurant, food, point_of_interest, establishment",+91 95527 57171,https://hotelshauryawada.com/,,2025-10-18T11:22:45.490045
ChIJQeVfixzqwjsRmB5H0782E_g,Garwa Restaurant,"Sr no 67 Hotel Garwa, Handewadi Rd, near Green City, Satav Nagar, Hadapsar, Pune",18.476196,73.9315321,3.8,714.0,,Indian,"restaurant, food, point_of_interest, establishment",+91 82085 00770,https://hotelgarwa.petpooja.com/,,2025-10-18T11:22:45.751936
ChIJ7wZZUZHrwjsRqVZ0ReEZ7C8,Mughal sarai,"NIBM Rd, Mohammed Wadi, Pune",18.4712923,73.9132946,4.0,10.0,,Indian,"restaurant, food, point_of_interest, establishment",,,,2025-10-18T11:22:46.005117
ChIJhZJKWTLrwjsR56PWMo91S-4,Mehak Punjabi Dhaba,"28, Indira Nagar, Ganesh Peth, Pune",18.4712879,73.9320477,4.3,19.0,,Indian,"restaurant, food, point_of_interest, establishment",+91 80874 28882,,,2025-10-18T11:22:46.280605
ChIJH8fq2EzrwjsR0qita-fnYic,VISHWARAAJ FOOD CORNER,"Shopno1,2, Handewadi Rd, Satav Nagar, Hadapsar, Pune",18.4771129,73.9315426,3.9,215.0,,Indian,"lodging, restaurant, food, store, point_of_interest, establishment",+91 82081 65914,https://instagram.com/vishwaraaj_food_corner?igshid=YmMyMTA2M2Y=,,2025-10-18T11:22:46.555608
ChIJh4Rq-Y3rwjsRu5nxTYthnxk,Five Fingers Restaurant,"Undri - Hadapsar Rd, near Chaya Hospital, Mahadev Wadi, Mohammed Wadi, Pune",18.4682887,73.9207316,4.0,1.0,,Indian,"restaurant, food, point_of_interest, establishment",+91 85303 52555,,,2025-10-18T11:22:46.841722
